id	name	latitude	longitude	country	prov_state
5881791	Abbotsford	49.05798	-122.25257	CA	BC
5882142	Acton Vale	45.65007	-72.56582	CA	QC
5882799	Airdrie	51.30011	-114.03528	CA	AB
5882873	Ajax	43.85012	-79.03288	CA	ON
5884083	Alma	48.55009	-71.6491	CA	QC
5884467	Amherst	45.83345	-64.19874	CA	NS
5884473	Amherstburg	42.11679	-83.04985	CA	ON
5884588	Amos	48.56688	-78.11624	CA	QC
5885280	Angus	44.31681	-79.88295	CA	ON
5885383	Anmore	49.31637	-122.85263	CA	BC
5886182	Antigonish	45.61685	-61.99858	CA	NS
5887214	Arnprior	45.43341	-76.34939	CA	ON
5887470	Asbestos	45.76678	-71.9324	CA	QC
5888716	Aylmer	42.76679	-80.98302	CA	ON
5889745	Baie-Comeau	49.21679	-68.14894	CA	QC
5892532	Banff	51.17622	-115.56982	CA	AB
5894171	Barrie	44.40011	-79.66634	CA	ON
5895424	Bay Roberts	47.59989	-53.26478	CA	NL
5895650	Beaconsfield	45.43341	-73.86586	CA	QC
5896495	Beauharnois	45.31341	-73.8725	CA	QC
5896522	Beaumont	53.35013	-113.41871	CA	AB
5897209	Bécancour	46.33336	-72.43241	CA	QC
5897884	Belleville	44.16682	-77.38277	CA	ON
5898070	Bells Corners	45.31588	-75.83012	CA	ON
5898138	Beloeil	45.56678	-73.19915	CA	QC
5903510	Blainville	45.66678	-73.88249	CA	QC
5904501	Bluewater	43.46679	-81.59977	CA	ON
5905132	Boisbriand	45.61678	-73.83249	CA	QC
5905152	Bois-des-Filion	45.66678	-73.74918	CA	QC
5905616	Bonnyville	54.26684	-110.73505	CA	AB
5906267	Boucherville	45.59104	-73.43605	CA	QC
5907092	Bracebridge	45.03341	-79.31633	CA	ON
5907180	Bradford West Gwillimbury	44.11681	-79.61633	CA	ON
5907364	Brampton	43.68341	-79.76633	CA	ON
5907896	Brandon	49.84692	-99.95306	CA	MB
5907983	Brant	43.1334	-80.34967	CA	ON
5907990	Brantford	43.1334	-80.26636	CA	ON
5908723	Bridgewater	44.38345	-64.51546	CA	NS
5909294	Brockville	44.59132	-75.68705	CA	ON
5909403	Bromont	45.31678	-72.64912	CA	QC
5909514	Brooks	50.58341	-111.88509	CA	AB
5909629	Brossard	45.45008	-73.46583	CA	QC
5909969	Brownsburg-Chatham	45.68342	-74.4159	CA	QC
5911592	Burlington	43.38621	-79.83713	CA	ON
5911606	Burnaby	49.26636	-122.95263	CA	BC
5913490	Calgary	51.05011	-114.08529	CA	AB
5913695	Cambridge	43.3601	-80.31269	CA	ON
5913934	Camlachie	43.03596	-82.1616	CA	ON
5914132	Campbell River	50.01634	-125.24459	CA	BC
5914653	Camrose	53.01684	-112.83525	CA	AB
5914826	Candiac	45.38338	-73.51587	CA	QC
5914894	Canmore	51.08335	-115.35206	CA	AB
5916722	Carbonear	47.73319	-53.21478	CA	NL
5917117	Carignan	45.45008	-73.29916	CA	QC
5917158	Carleton Place	45.13341	-76.14938	CA	ON
5918118	Castlegar	49.29984	-117.66894	CA	BC
5919566	Chambly	45.45008	-73.28246	CA	QC
5920089	Charlemagne	45.71678	-73.48247	CA	QC
5920288	Charlottetown	46.23525	-63.12671	CA	PE
5920433	Châteauguay	45.38338	-73.74919	CA	QC
5921147	Chibougamau	49.91684	-74.36586	CA	QC
5921356	Chilliwack	49.16638	-121.95257	CA	BC
5923101	Clarence-Rockland	45.5501	-75.29101	CA	ON
5924417	Coaldale	49.7167	-112.61854	CA	AB
5924500	Coaticook	45.13339	-71.79907	CA	QC
5924579	Cobourg	43.95977	-78.16515	CA	ON
5924618	Cochrane	51.18341	-114.46871	CA	AB
5925024	Cold Lake	54.46525	-110.18154	CA	AB
5925975	Collingwood	44.4834	-80.21638	CA	ON
5926268	Colwood	48.43293	-123.48591	CA	BC
5926511	Conception Bay South	47.49989	-52.99806	CA	NL
5926526	Concord	43.80011	-79.48291	CA	ON
5927689	Coquitlam	49.28297	-122.75262	CA	BC
5927969	Corner Brook	48.95001	-57.95202	CA	NL
5928065	Cornwall	45.01809	-74.72815	CA	ON
5928488	Côte-Saint-Luc	45.46536	-73.66585	CA	QC
5930890	Courtenay	49.68657	-124.9936	CA	BC
5931074	Cowansville	45.20008	-72.74913	CA	QC
5931800	Cranbrook	49.49991	-115.76879	CA	BC
5935277	Dartmouth	44.67134	-63.57719	CA	NS
5935341	Dauphin	51.14941	-100.05023	CA	MB
5935804	Dawson Creek	55.7666	-120.23616	CA	BC
5937612	Delson	45.36678	-73.54917	CA	QC
5937615	Delta	49.14399	-122.9068	CA	BC
5938513	Deux-Montagnes	45.53455	-73.90168	CA	QC
5938801	Devon	53.36683	-113.73533	CA	AB
5939219	Dieppe	46.07844	-64.68735	CA	NB
5941925	Dorval	45.4473	-73.75335	CA	QC
5942547	Drayton Valley	53.21682	-114.98544	CA	AB
5942845	Drummondville	45.88336	-72.48241	CA	QC
5942913	Dryden	49.78334	-92.75032	CA	ON
5943865	Duncan	48.78293	-123.70266	CA	BC
5946768	Edmonton	53.55014	-113.46871	CA	AB
5946820	Edson	53.58345	-116.43559	CA	AB
5947866	Elliot Lake	46.38336	-82.63315	CA	ON
5949568	Estevan	49.13337	-102.98422	CA	SK
5950267	Etobicoke	43.65421	-79.56711	CA	ON
5951644	Farnham	45.28338	-72.98244	CA	QC
5952370	Fernie	49.49996	-115.06871	CA	BC
5940934	Dolbeau-Mistassini	48.8786	-72.23142	CA	QC
5954718	Flin Flon	54.76824	-101.86497	CA	MB
5955815	Fort Erie	42.90012	-78.93286	CA	ON
5955826	Fort Frances	48.59988	-93.4003	CA	ON
5955895	Fort McMurray	56.72676	-111.38103	CA	AB
5955948	Fort Saskatchewan	53.71684	-113.2187	CA	AB
5955960	Fort St. John	56.24988	-120.85292	CA	BC
5957776	Fredericton	45.94541	-66.66558	CA	NB
5959326	Gananoque	44.33342	-76.16607	CA	ON
5959878	Gaspé	48.83341	-64.48194	CA	QC
5959974	Gatineau	45.47723	-75.70164	CA	QC
5960971	Gibsons	49.39539	-123.50555	CA	BC
5961564	Glace Bay	46.19695	-59.95698	CA	NS
5962442	Goderich	43.75008	-81.71648	CA	ON
5964215	Granby	45.40008	-72.73243	CA	QC
5964347	Grande Prairie	55.16667	-118.80271	CA	AB
5964378	Grand Falls-Windsor	48.93324	-55.66492	CA	NL
5964700	Greater Sudbury	46.49	-80.99001	CA	ON
5965546	Gravenhurst	44.91681	-79.36633	CA	ON
5965812	Greater Napanee	44.25012	-76.94944	CA	ON
5966689	Greenwood	44.98345	-64.89879	CA	NS
5967629	Guelph	43.54594	-80.25599	CA	ON
5969782	Hamilton	43.25011	-79.84963	CA	ON
5970014	Hampstead	45.48064	-73.66307	CA	QC
5970063	Hanceville	51.91922	-123.04458	CA	BC
5970301	Hanover	44.15009	-81.03303	CA	ON
5970458	Happy Valley-Goose Bay	53.31685	-60.33153	CA	NL
5972360	Hawkesbury	45.60009	-74.61595	CA	ON
5975038	High River	50.58341	-113.86867	CA	AB
5975503	Hinton	53.40009	-117.58567	CA	AB
5978126	Hudson	45.45008	-74.14922	CA	QC
5978765	Huntsville	45.33341	-79.21632	CA	ON
5978831	Huron East	43.61679	-81.29975	CA	ON
5983175	Ingersoll	43.03339	-80.88302	CA	ON
5983433	Innisfil	44.30011	-79.64964	CA	ON
5940956	Dollard-Des Ormeaux	45.49452	-73.82419	CA	QC
5941761	Dorchester	42.98339	-81.06643	CA	ON
5983720	Iqaluit	63.75059	-68.51449	CA	NU
5987650	Joliette	46.01677	-73.44915	CA	QC
5989045	Kamloops	50.66648	-120.3192	CA	BC
5989403	Kapuskasing	49.41694	-82.43308	CA	ON
5990579	Kelowna	49.88307	-119.48568	CA	BC
5991148	Kentville	45.08345	-64.49876	CA	NS
5991370	Keswick	44.25011	-79.46632	CA	ON
5992059	Kimberley	49.67071	-115.9776	CA	BC
5992500	Kingston	44.22976	-76.48098	CA	ON
5992830	Kirkland	45.45008	-73.86586	CA	QC
5992836	Kirkland Lake	48.14461	-80.03767	CA	ON
5992996	Kitchener	43.42537	-80.5112	CA	ON
5994839	Labrador City	52.94626	-66.91137	CA	NL
5993072	Kitimat	54.05244	-128.65342	CA	BC
6002133	Lac-Brome	45.21678	-72.51581	CA	QC
6024829	Lachute	45.65008	-74.33253	CA	QC
6035615	Lacombe	52.46681	-113.7353	CA	AB
6047817	Ladysmith	48.98292	-123.81938	CA	BC
6049024	Lambton Shores	43.16678	-81.93309	CA	ON
6049388	Langford	48.44963	-123.50261	CA	BC
6049429	Langley	49.10107	-122.65883	CA	BC
6049430	Langley	49.08297	-122.58589	CA	BC
6050194	La Sarre	48.80019	-79.19964	CA	QC
6049863	La Prairie	45.41678	-73.49917	CA	QC
6050263	L'Assomption	45.82318	-73.4294	CA	QC
6050416	La Tuque	47.43337	-72.7824	CA	QC
6050610	Laval	45.56995	-73.692	CA	QC
6051562	Leduc	53.26682	-113.55201	CA	AB
6052788	Les Coteaux	45.28338	-74.23254	CA	QC
6053154	Lethbridge	49.69999	-112.81856	CA	AB
6050650	Lavaltrie	45.88338	-73.28245	CA	QC
6053877	L'Île-Perrot	45.38338	-73.9492	CA	QC
6058024	Lloydminster	53.28346	-110.00157	CA	SK
6058560	London	42.98339	-81.23304	CA	ON
6059891	Longueuil	45.53121	-73.51806	CA	QC
6060407	Lorraine	45.68338	-73.78249	CA	QC
6060839	Louiseville	46.25594	-72.94145	CA	QC
6064180	Magog	45.26678	-72.14909	CA	QC
6065686	Maple Ridge	49.21939	-122.60193	CA	BC
6066350	Marieville	45.43338	-73.16585	CA	QC
6066513	Markham	43.86682	-79.2663	CA	ON
6067494	Mascouche	45.74965	-73.59956	CA	QC
6071618	Medicine Hat	50.05006	-110.66834	CA	AB
6071876	Melfort	52.86673	-104.61768	CA	SK
6072206	Mercier	45.31678	-73.74919	CA	QC
6072350	Merritt	50.11225	-120.7942	CA	BC
6075081	Miramichi	47.02895	-65.50186	CA	NB
6075357	Mississauga	43.5789	-79.6583	CA	ON
6076211	Moncton	46.11594	-64.80186	CA	NB
6077128	Mont-Laurier	46.55011	-75.4993	CA	QC
6077243	Montréal	45.50884	-73.58781	CA	QC
6077265	Montréal-Ouest	45.45286	-73.64918	CA	QC
6077315	Mont-Royal	45.51675	-73.64918	CA	QC
6077340	Mont-Saint-Hilaire	45.56678	-73.19915	CA	QC
6078112	Moose Jaw	50.40005	-105.53445	CA	SK
6077445	Mont-Tremblant	46.21274	-74.58438	CA	QC
6078447	Morden	49.1919	-98.10136	CA	MB
6078636	Morinville	53.80014	-113.65203	CA	AB
6082231	Mount Pearl	47.51659	-52.78135	CA	NL
6085772	Nanaimo	49.16638	-123.94003	CA	BC
6086871	Nelson	49.49985	-117.28553	CA	BC
6087579	New Glasgow	45.58344	-62.64863	CA	NS
6087701	Newmarket	44.05011	-79.46631	CA	ON
6087844	New Westminster	49.20678	-122.91092	CA	BC
6087892	Niagara Falls	43.10012	-79.06627	CA	ON
6088132	Nicolet	46.21676	-72.61582	CA	QC
6089125	Norfolk County	42.8334	-80.38297	CA	ON
6089404	North Battleford	52.77972	-108.2967	CA	SK
6089426	North Bay	46.3168	-79.46633	CA	ON
6089661	North Cowichan	48.84133	-123.68596	CA	BC
6073363	Midland	44.7501	-79.88296	CA	ON
6090405	North Perth	43.7251	-80.96723	CA	ON
6074377	Milton	43.51681	-79.88294	CA	ON
6090579	North Saanich	48.66634	-123.41933	CA	BC
6075061	Mirabel	45.65008	-74.08251	CA	QC
6090785	North Vancouver	49.31636	-123.06934	CA	BC
6091104	North York	43.76681	-79.4163	CA	ON
6091369	Notre-Dame-de-l'Île-Perrot	45.36678	-73.9325	CA	QC
6091422	Notre-Dame-des-Prairies	46.05007	-73.43245	CA	QC
6091919	Oak Bay	48.44964	-123.3026	CA	BC
6092122	Oakville	43.45011	-79.68292	CA	ON
6093010	Okotoks	50.72885	-113.98281	CA	AB
6093347	Olds	51.78341	-114.10199	CA	AB
6094201	Orangeville	43.9168	-80.09967	CA	ON
6094325	Orillia	44.60868	-79.42068	CA	ON
6094407	Oromocto	45.83512	-66.47917	CA	NB
6094578	Oshawa	43.90012	-78.84957	CA	ON
6094817	Ottawa	45.41117	-75.69812	CA	ON
6094884	Otterburn Park	45.53338	-73.21585	CA	QC
6095645	Owen Sound	44.56717	-80.94349	CA	ON
6098642	Parksville	49.31633	-124.31945	CA	BC
6098747	Parry Sound	45.34732	-80.03527	CA	ON
6100069	Peace River	56.2501	-117.28599	CA	AB
6100832	Pembroke	45.81681	-77.11616	CA	ON
6101141	Penticton	49.48062	-119.58584	CA	BC
6101546	Perth	44.90011	-76.24939	CA	ON
6101606	Petawawa	45.89452	-77.28007	CA	ON
6101645	Peterborough	44.30012	-78.31623	CA	ON
6103581	Petrolia	42.86678	-82.14981	CA	ON
6104111	Pickering	43.90012	-79.13289	CA	ON
6104876	Pincourt	45.38338	-73.9825	CA	QC
6105815	Pitt Meadows	49.22119	-122.68965	CA	BC
6107325	Pointe-Claire	45.44868	-73.81669	CA	QC
6109273	Ponoka	52.6768	-113.58147	CA	AB
6110611	Pont Rouge	48.88332	-72.08247	CA	QC
6111529	Portage la Prairie	49.97282	-98.29263	CA	MB
6111632	Port Alberni	49.24133	-124.8028	CA	BC
6111696	Port-Cartier	50.03339	-66.86545	CA	QC
6111704	Port Colborne	42.90012	-79.23288	CA	ON
6111962	Port Moody	49.28297	-122.85263	CA	BC
6112608	Powell River	49.87022	-124.54926	CA	BC
6113198	Prévost	45.86678	-74.08251	CA	QC
6113335	Prince Albert	53.20008	-105.76772	CA	SK
6113355	Prince Edward	44.00012	-77.24946	CA	ON
6113365	Prince George	53.9166	-122.75301	CA	BC
6113406	Prince Rupert	54.31507	-130.32098	CA	BC
6113466	Princeville	45.76684	-61.29853	CA	NS
6115187	Quesnel	52.97842	-122.4931	CA	BC
6115355	Quinte West	44.18342	-77.56618	CA	ON
6117611	Rawdon	46.05007	-73.71587	CA	QC
6117731	Rayside-Balfour	46.60873	-81.20763	CA	ON
6118158	Red Deer	52.26682	-113.802	CA	AB
6119109	Regina	50.45008	-104.6178	CA	SK
6119448	Renfrew	45.46681	-76.68272	CA	ON
6119518	Repentigny	45.74222	-73.45008	CA	QC
6121621	Revelstoke	50.98317	-118.2023	CA	BC
6122037	Richelieu	45.44336	-73.24602	CA	QC
6122085	Richmond	49.17003	-123.13683	CA	BC
6122091	Richmond Hill	43.87111	-79.43725	CA	ON
6125653	Roberval	48.5168	-72.23244	CA	QC
6126749	Rocky Mountain House	52.36683	-114.9188	CA	AB
6127681	Rosemère	45.63338	-73.79919	CA	QC
6128577	Rouyn-Noranda	48.23656	-79.02311	CA	QC
6137063	Sackville	45.91875	-64.38455	CA	NB
6137489	Saint-Basile-le-Grand	45.53338	-73.28246	CA	QC
6137540	Saint-Bruno-de-Montarville	45.53341	-73.34916	CA	QC
6137633	Saint-Constant	45.36678	-73.56588	CA	QC
6137696	Sainte-Adèle	45.95008	-74.13251	CA	QC
6137702	Sainte-Agathe-des-Monts	46.05009	-74.28252	CA	QC
6137733	Sainte-Anne-de-Bellevue	45.40618	-73.9456	CA	QC
6137749	Sainte-Anne-des-Monts	49.12402	-66.49243	CA	QC
6137753	Sainte-Anne-des-Plaines	45.76468	-73.81156	CA	QC
6137270	Saguenay	48.41675	-71.06573	CA	QC
6137781	Sainte-Catherine	46.31836	-72.56632	CA	QC
6137941	Sainte-Julie	45.58338	-73.33246	CA	QC
6138032	Sainte-Marthe-sur-le-Lac	45.53338	-73.9325	CA	QC
6138121	Sainte-Thérèse	45.63922	-73.82757	CA	QC
6138175	Saint-Eustache	45.565	-73.90554	CA	QC
6138201	Saint-Félicien	48.65007	-72.44906	CA	QC
6138374	Saint-Hyacinthe	45.63076	-72.95699	CA	QC
6138495	Saint-Jean-sur-Richelieu	45.30713	-73.26259	CA	QC
6138501	Saint-Jérôme	45.78036	-74.00365	CA	QC
6138517	Saint John	45.27271	-66.06766	CA	NB
6138599	Saint-Lambert	48.95272	-79.4593	CA	QC
6138610	Saint-Laurent	45.50008	-73.66585	CA	QC
6138617	Saint-Lazare	45.40008	-74.13256	CA	QC
6138625	Saint-Léonard	45.58773	-73.59501	CA	QC
6138643	Saint-Lin-Laurentides	45.85008	-73.76588	CA	QC
6138980	Saint-Raymond	45.46698	-73.60948	CA	QC
6139045	Saint-Sauveur	45.88686	-74.17943	CA	QC
6139289	Salaberry-de-Valleyfield	45.25008	-74.13253	CA	QC
6139416	Salmon Arm	50.6998	-119.30237	CA	BC
6141190	Sarnia	42.97866	-82.40407	CA	ON
6141256	Saskatoon	52.11679	-106.63452	CA	SK
6141439	Sault Ste. Marie	46.51677	-84.33325	CA	ON
6143367	Sechelt	49.47512	-123.75903	CA	BC
6144054	Selkirk	50.1436	-96.88452	CA	MB
6144312	Sept-Îles	50.20011	-66.38208	CA	QC
6145489	Shawinigan	46.56675	-72.74913	CA	QC
6146143	Sherbrooke	45.40008	-71.89908	CA	QC
6146279	Sherwood Park	53.51684	-113.3187	CA	AB
6149374	Slave Lake	55.28344	-114.76896	CA	AB
6149996	Smithers	54.78036	-127.17428	CA	BC
6150174	Smiths Falls	44.90452	-76.02333	CA	ON
6151264	Sooke	48.37463	-123.72762	CA	BC
6151352	Sorel-Tracy	46.03336	-73.11585	CA	QC
6152244	South Huron	43.31679	-81.51647	CA	ON
6154383	Spruce Grove	53.53344	-113.91874	CA	AB
6155033	St. Albert	53.63344	-113.63533	CA	AB
6155721	St. Catharines	43.17126	-79.24267	CA	ON
6156102	Steinbach	49.52579	-96.68451	CA	MB
6156244	Stephenville	48.55001	-58.5818	CA	NL
6156307	Stettler	52.31683	-112.71861	CA	AB
6157977	Stratford	43.36679	-80.94972	CA	ON
6158023	Strathmore	51.05011	-113.38523	CA	AB
6158357	St. Thomas	42.77361	-81.18038	CA	ON
6159232	Summerland	49.59977	-119.66911	CA	BC
6157536	Stony Plain	53.53343	-114.00205	CA	AB
6159244	Summerside	46.39593	-63.78762	CA	PE
6159905	Surrey	49.10635	-122.82509	CA	BC
6160603	Swift Current	50.28337	-107.80135	CA	SK
6160806	Sylvan Lake	52.31681	-114.0853	CA	AB
6160919	Taber	49.78703	-112.14603	CA	AB
6162659	Temiskaming Shores	47.49376	-79.71529	CA	ON
6163012	Terrebonne	45.70004	-73.64732	CA	QC
6164499	The Pas	53.82509	-101.25413	CA	MB
6165406	Thompson	55.7435	-97.85579	CA	MB
6165719	Thorold	43.11682	-79.19958	CA	ON
6162949	Terrace	54.51634	-128.60345	CA	BC
6166142	Thunder Bay	48.38202	-89.25018	CA	ON
6166739	Timmins	48.46686	-81.33312	CA	ON
6167865	Toronto	43.70011	-79.4163	CA	ON
6168326	Trail	49.09983	-117.70223	CA	BC
6169141	Trois-Rivières	46.34515	-72.5477	CA	QC
6169587	Truro	45.36685	-63.26538	CA	NS
6173012	Val-des-Monts	45.6501	-75.66604	CA	QC
6173017	Val-d'Or	48.10018	-77.7828	CA	QC
6173331	Vancouver	49.24966	-123.11934	CA	BC
6173508	Varennes	45.68338	-73.43246	CA	QC
6173570	Vaudreuil-Dorion	45.40008	-74.03251	CA	QC
6173577	Vaughan	43.8361	-79.49827	CA	ON
6173635	Vegreville	53.50015	-112.05182	CA	AB
6173864	Vernon	50.25809	-119.26905	CA	BC
6174041	Victoria	48.43294	-123.3693	CA	BC
6174151	Victoriaville	46.05007	-71.96579	CA	QC
6175059	Wainwright	52.83904	-110.85723	CA	AB
6176421	Wasaga Beach	44.5168	-80.01637	CA	ON
6176823	Waterloo	43.4668	-80.51639	CA	ON
6177869	Welland	42.98342	-79.24958	CA	ON
6178582	West End	49.28333	-123.13333	CA	BC
6179138	Westlock	54.15016	-113.86876	CA	AB
6179226	Westmount	45.48341	-73.59918	CA	QC
6179602	Wetaskiwin	52.96683	-113.36869	CA	AB
6179652	Weyburn	49.66675	-103.85109	CA	SK
6180144	Whistler	50.1164	-122.96946	CA	BC
6180285	Whitecourt	54.15015	-115.68548	CA	AB
6180550	Whitehorse	60.71611	-135.05375	CA	YT
6180961	White Rock	49.01636	-122.8026	CA	BC
6182212	Williams Lake	52.14153	-122.14451	CA	BC
6182959	Windsor	45.56678	-71.99909	CA	QC
6182962	Windsor	42.30008	-83.01654	CA	ON
6183204	Winkler	49.1817	-97.94104	CA	MB
6183235	Winnipeg	49.8844	-97.14704	CA	MB
6184365	Woodstock	43.13339	-80.7497	CA	ON
6185217	Yarmouth	43.83345	-66.11557	CA	NS
6185377	Yellowknife	62.456	-114.35255	CA	NT
6185607	Yorkton	51.2167	-102.46766	CA	SK
6295855	Beauceville	46.21785	-70.77873	CA	QC
6324729	Halifax	44.64533	-63.57239	CA	NS
6324733	St. John's	47.56494	-52.70931	CA	NL
6325494	Québec	46.81228	-71.21454	CA	QC
6325521	Lévis	46.80326	-71.17793	CA	QC
6325529	Montmagny	46.98043	-70.55493	CA	QC
6354895	Rimouski	48.44879	-68.52396	CA	QC
6354897	Rivière-du-Loup	47.82699	-69.54243	CA	QC
6354908	Sydney	46.1351	-60.1831	CA	NS
6534203	L'Ancienne-Lorette	46.79392	-71.35191	CA	QC
6545023	Edmundston	47.3737	-68.32512	CA	NB
6639619	Sainte Catherine de la Jacques Cartier	46.85244	-71.62056	CA	QC
6690232	Baie-Saint-Paul	47.44109	-70.49858	CA	QC
6696258	Campbellton	48.00751	-66.67272	CA	NB
6696259	Bathurst	47.61814	-65.65112	CA	NB
6942553	Paris	43.2	-80.38333	CA	ON
6696260	Matane	48.82857	-67.52197	CA	QC
6943488	Amqui	48.46382	-67.43134	CA	QC
6943811	Chandler	48.34935	-64.67926	CA	QC
6943827	Thetford-Mines	46.09371	-71.30539	CA	QC
6944113	Mont-Joli	48.58388	-68.19214	CA	QC
6945986	La Malbaie	47.654	-70.15268	CA	QC
6945989	Sainte-Marie	46.43401	-71.01168	CA	QC
6945991	Plessisville	46.21856	-71.76201	CA	QC
7280414	Cole Harbour	44.67244	-63.47506	CA	NS
7281931	Okanagan	50.36386	-119.34997	CA	BC
7281936	West Kelowna	49.8625	-119.58333	CA	BC
7302647	Bellechasse Regional County Municipality	46.66667	-70.71667	CA	QC
7303783	Sydney Mines	46.23669	-60.21767	CA	NS
7303786	Jonquière	48.41648	-71.24884	CA	QC
7535690	Donnacona	46.68042	-71.7239	CA	QC
7535681	Saint-Augustin-de-Desmaures	46.74064	-71.45131	CA	QC
7602078	Ladner	49.08938	-123.08241	CA	BC
7669012	Walnut Grove	49.16473	-122.64042	CA	BC
7669018	Aldergrove	49.05801	-122.47087	CA	BC
8285452	Ancaster	43.21806	-79.98716	CA	ON
8354586	Saint-Henri	46.69314	-71.06927	CA	QC
8354587	Saint-Lambert-de-Lauzon	46.58624	-71.20892	CA	QC
8354533	Shannon	46.88026	-71.51464	CA	QC
8379100	Pont-Rouge	46.75468	-71.69566	CA	QC
8379101	Princeville	46.17163	-71.87462	CA	QC
8533869	West Vancouver	49.36672	-123.16652	CA	BC
8558534	Willowdale	43.76672	-79.39909	CA	ON
4046255	Bay Minette	30.88296	-87.77305	US	AL
4046274	Edna	28.97859	-96.64609	US	TX
4046332	Henderson	32.15322	-94.79938	US	TX
4046704	Fort Hunt	38.73289	-77.05803	US	VA
4047906	Trinity	28.18085	-82.68177	US	FL
4047914	Villas	26.55035	-81.8687	US	FL
4048023	Bessemer	33.40178	-86.95444	US	AL
4048662	Paducah	37.08339	-88.60005	US	KY
4048888	Red Chute	32.55598	-93.61323	US	LA
4049032	Jessup	39.14927	-76.77525	US	MD
4049979	Birmingham	33.52066	-86.80249	US	AL
4050006	Delhi Hills	39.09284	-84.61272	US	OH
4050118	Turpin Hills	39.11006	-84.37994	US	OH
4050356	Lugoff	34.22737	-80.68925	US	SC
4050880	Buda	30.08521	-97.84028	US	TX
4051059	Boaz	34.20065	-86.16637	US	AL
4051714	Brewton	31.10518	-87.07219	US	AL
4051894	Brook Highland	33.43566	-86.67388	US	AL
4052964	Cahaba Heights	33.464	-86.73193	US	AL
4053050	Calera	33.1029	-86.7536	US	AL
4054378	Center Point	33.64566	-86.6836	US	AL
4054852	Chelsea	33.34011	-86.63026	US	AL
4054996	Chickasaw	30.7638	-88.07472	US	AL
4057835	Cullman	34.17482	-86.84361	US	AL
4058061	Daleville	31.31017	-85.71299	US	AL
4058198	Danville	34.41454	-87.08751	US	AL
4058219	Daphne	30.60353	-87.9036	US	AL
4055577	Clanton	32.83874	-86.62943	US	AL
4055650	Clay	33.7026	-86.59971	US	AL
4058553	Decatur	34.60593	-86.98334	US	AL
4055045	Childersburg	33.27817	-86.35498	US	AL
4059870	East Florence	34.80953	-87.64947	US	AL
4060954	Eufaula	31.89127	-85.14549	US	AL
4058662	Demopolis	32.51764	-87.8364	US	AL
4059102	Dothan	31.22323	-85.39049	US	AL
4060791	Enterprise	31.31517	-85.85522	US	AL
4061206	Fairfield	33.48594	-86.91194	US	AL
4061234	Fairhope	30.52297	-87.90333	US	AL
4062644	Foley	30.40659	-87.6836	US	AL
4062774	Forestdale	33.57011	-86.89638	US	AL
4062861	Fort Payne	34.44425	-85.71969	US	AL
4063570	Fultondale	33.60483	-86.79388	US	AL
4062577	Florence	34.79981	-87.67725	US	AL
4063619	Gadsden	34.01426	-86.00664	US	AL
4063765	Gardendale	33.6601	-86.81277	US	AL
4064310	Glencoe	33.95704	-85.93247	US	AL
4065029	Grayson Valley	33.64816	-86.63943	US	AL
4065302	Greenville	31.8296	-86.61775	US	AL
4065552	Gulf Shores	30.24604	-87.70082	US	AL
4065649	Guntersville	34.35815	-86.2947	US	AL
4065965	Hamilton	34.14232	-87.98864	US	AL
4066449	Hartselle	34.44343	-86.93528	US	AL
4066463	Harvest	34.85564	-86.75083	US	AL
4066811	Helena	33.29622	-86.8436	US	AL
4067927	Homewood	33.47177	-86.80082	US	AL
4067994	Hoover	33.40539	-86.81138	US	AL
4068446	Hueytown	33.45122	-86.99666	US	AL
4068590	Huntsville	34.73037	-86.5861	US	AL
4069243	Irondale	33.53816	-86.70721	US	AL
4069458	Jackson	31.50905	-87.89444	US	AL
4069553	Jacksonville	33.81371	-85.76135	US	AL
4069659	Jasper	33.83122	-87.27751	US	AL
4071488	Lake Purdy	33.43011	-86.68054	US	AL
4071763	Lanett	32.86874	-85.1905	US	AL
4072130	Leeds	33.54816	-86.54443	US	AL
4072767	Lincoln	33.61316	-86.11831	US	AL
4074267	Madison	34.69926	-86.74833	US	AL
4075692	Meadowbrook	33.40205	-86.69665	US	AL
4075854	Meridianville	34.85148	-86.57222	US	AL
4075977	Midfield	33.4615	-86.90888	US	AL
4076239	Millbrook	32.47986	-86.36192	US	AL
4076598	Mobile	30.69436	-88.04305	US	AL
4076725	Monroeville	31.52794	-87.32471	US	AL
4076771	Montevallo	33.10067	-86.86416	US	AL
4076784	Montgomery	32.36681	-86.29997	US	AL
4076842	Moody	33.59094	-86.49082	US	AL
4076982	Moores Mill	34.84398	-86.51832	US	AL
4078646	Mountain Brook	33.50094	-86.75221	US	AL
4078964	Muscle Shoals	34.74481	-87.66753	US	AL
4080555	Northport	33.22901	-87.57723	US	AL
4081644	Opelika	32.64541	-85.37828	US	AL
4081671	Oneonta	33.94815	-86.47276	US	AL
4081683	Opp	31.28267	-86.25551	US	AL
4081696	Orange Beach	30.29437	-87.57359	US	AL
4081914	Oxford	33.61427	-85.83496	US	AL
4081936	Ozark	31.45906	-85.64049	US	AL
4082569	Pelham	33.28567	-86.80999	US	AL
4082589	Pell City	33.58621	-86.28609	US	AL
4082866	Phenix City	32.47098	-85.00077	US	AL
4083073	Pike Road	32.28431	-86.10302	US	AL
4083697	Pinson	33.68899	-86.68332	US	AL
4083846	Pleasant Grove	33.49094	-86.97027	US	AL
4084796	Prattville	32.46402	-86.4597	US	AL
4084888	Prichard	30.7388	-88.07889	US	AL
4085336	Rainbow City	33.95482	-86.04192	US	AL
4086285	Roanoke	33.15123	-85.37217	US	AL
4086363	Robertsdale	30.5538	-87.71193	US	AL
4088146	Saks	33.69871	-85.83969	US	AL
4087313	Russellville	34.50787	-87.72864	US	AL
4088628	Saraland	30.82074	-88.07056	US	AL
4088737	Satsuma	30.85324	-88.05611	US	AL
4088916	Scottsboro	34.67231	-86.03415	US	AL
4089114	Selma	32.40736	-87.0211	US	AL
4089536	Sheffield	34.76509	-87.69864	US	AL
4091058	Southside	33.92454	-86.02247	US	AL
4091136	Spanish Fort	30.67491	-87.91527	US	AL
4092671	Sylacauga	33.17317	-86.25164	US	AL
4092788	Talladega	33.43594	-86.1058	US	AL
4092970	Tarrant	33.58344	-86.77277	US	AL
4093399	Theodore	30.54769	-88.17528	US	AL
4093753	Tillmans Corner	30.59019	-88.17084	US	AL
4094163	Troy	31.80877	-85.96995	US	AL
4094212	Trussville	33.61983	-86.60888	US	AL
4094455	Tuscaloosa	33.20984	-87.56917	US	AL
4094484	Tuscumbia	34.7312	-87.70253	US	AL
4094490	Tuskegee	32.42403	-85.69162	US	AL
4095186	Valley	32.81874	-85.17939	US	AL
4095415	Vestavia Hills	33.44872	-86.78777	US	AL
4097257	Wetumpka	32.54374	-86.21191	US	AL
4099296	Alma	35.47787	-94.22188	US	AR
4099647	Arkadelphia	34.12093	-93.05378	US	AR
4100525	Batesville	35.7698	-91.64097	US	AR
4100984	Beebe	35.07064	-91.87959	US	AR
4101114	Bella Vista	36.42952	-94.2316	US	AR
4101115	Bella Vista	36.48146	-94.27326	US	AR
4101241	Benton	34.56454	-92.58683	US	AR
4101260	Bentonville	36.37285	-94.20882	US	AR
4101309	Berryville	36.36479	-93.56797	US	AR
4102412	Blytheville	35.9273	-89.91898	US	AR
4103448	Bryant	34.59593	-92.48905	US	AR
4103957	Cabot	34.97453	-92.01653	US	AR
4104182	Camden	33.58456	-92.83433	US	AR
4105168	Centerton	36.3598	-94.28521	US	AR
4105879	Clarksville	35.47147	-93.46657	US	AR
4106458	Conway	35.0887	-92.4421	US	AR
4107198	Crossett	33.12818	-91.96124	US	AR
4107802	De Queen	34.03789	-94.34132	US	AR
4109785	El Dorado	33.20763	-92.66627	US	AR
4109452	East End	34.55065	-92.34099	US	AR
4110443	Farmington	36.04202	-94.24715	US	AR
4110486	Fayetteville	36.06258	-94.15743	US	AR
4111382	Forrest City	35.00815	-90.78983	US	AR
4111410	Fort Smith	35.38592	-94.39855	US	AR
4113143	Greenwood	35.21565	-94.25577	US	AR
4113956	Harrison	36.22979	-93.10768	US	AR
4114225	Heber Springs	35.49147	-92.03126	US	AR
4114272	Helena	34.52955	-90.59177	US	AR
4115181	Hope	33.66706	-93.59157	US	AR
4115412	Hot Springs	34.5037	-93.05518	US	AR
4115429	Hot Springs Village	34.66548	-93.01	US	AR
4116315	Jacksonville	34.8662	-92.11015	US	AR
4119403	Little Rock	34.74648	-92.28959	US	AR
4116834	Jonesboro	35.8423	-90.70428	US	AR
4119972	Lowell	36.25535	-94.13076	US	AR
4120323	Magnolia	33.26707	-93.23933	US	AR
4120388	Malvern	34.36231	-92.81295	US	AR
4120524	Marion	35.21453	-90.19648	US	AR
4120792	Maumelle	34.86676	-92.40432	US	AR
4121297	Mena	34.58622	-94.23966	US	AR
4122015	Monticello	33.629	-91.79096	US	AR
4122218	Morrilton	35.15092	-92.74405	US	AR
4123037	Mountain Home	36.33534	-92.38516	US	AR
4123830	Newport	35.6048	-91.2818	US	AR
4124112	North Little Rock	34.76954	-92.26709	US	AR
4125027	Osceola	35.70508	-89.96953	US	AR
4125388	Paragould	36.0584	-90.49733	US	AR
4126923	Pocahontas	36.26146	-90.97123	US	AR
4128894	Rogers	36.33202	-94.11854	US	AR
4129397	Russellville	35.27842	-93.13379	US	AR
4130430	Searcy	35.25064	-91.73625	US	AR
4131116	Siloam Springs	36.18814	-94.5405	US	AR
4132093	Springdale	36.18674	-94.12881	US	AR
4126226	Pine Bluff	34.22843	-92.0032	US	AR
4132625	Stuttgart	34.50037	-91.55263	US	AR
4133367	Texarkana	33.44179	-94.03769	US	AR
4133933	Trumann	35.67369	-90.50733	US	AR
4134716	Van Buren	35.43676	-94.34827	US	AR
4135349	Warren	33.61261	-92.06458	US	AR
4135865	West Memphis	35.14648	-90.18454	US	AR
4135840	West Helena	34.55066	-90.64177	US	AR
4136153	White Hall	34.27399	-92.09098	US	AR
4137215	Wynne	35.22453	-90.78678	US	AR
4140963	Washington, D. C.	38.89511	-77.03637	US	DC
4141363	Bear	39.62928	-75.65826	US	DE
4141674	Brookside	39.66706	-75.72688	US	DE
4141974	Claymont	39.80067	-75.45964	US	DE
4142290	Dover	39.15817	-75.52437	US	DE
4142398	Edgemoor	39.75011	-75.49964	US	DE
4142424	Elsmere	39.73928	-75.59798	US	DE
4142643	Georgetown	38.69011	-75.38547	US	DE
4142683	Glasgow	39.60483	-75.74521	US	DE
4142969	Hockessin	39.78761	-75.6966	US	DE
4143637	Middletown	39.44956	-75.71632	US	DE
4143658	Milford	38.91261	-75.42797	US	DE
4143834	New Castle	39.66206	-75.56631	US	DE
4143897	North Star	39.76122	-75.7191	US	DE
4143861	Newark	39.68372	-75.74966	US	DE
4144100	Pike Creek	39.73095	-75.7041	US	DE
4144101	Pike Creek Valley	39.73622	-75.69827	US	DE
4144600	Seaford	38.64123	-75.61104	US	DE
4144764	Smyrna	39.29983	-75.60465	US	DE
4145381	Wilmington	39.74595	-75.54659	US	DE
4145395	Wilmington Manor	39.68678	-75.58437	US	DE
4145719	Alachua	29.75163	-82.42483	US	FL
4145805	Allapattah	25.81454	-80.22394	US	FL
4145941	Altamonte Springs	28.66111	-81.36562	US	FL
4146039	Andover	25.96843	-80.21283	US	FL
4146161	Apollo Beach	27.77308	-82.40759	US	FL
4146166	Apopka	28.68055	-81.50952	US	FL
4146206	Arcadia	27.21588	-81.85842	US	FL
4146354	Atlantic Beach	30.33441	-81.3987	US	FL
4146389	Auburndale	28.0653	-81.78869	US	FL
4146440	Avon Park	27.59587	-81.50619	US	FL
4146429	Aventura	25.95648	-80.13921	US	FL
4146464	Azalea Park	28.54111	-81.30062	US	FL
4146723	Bartow	27.89641	-81.84314	US	FL
4146823	Bay Harbor Islands	25.88759	-80.13116	US	FL
4146901	Bayonet Point	28.32667	-82.68343	US	FL
4146934	Bayshore Gardens	27.42532	-82.59038	US	FL
4146984	Beacon Square	28.20862	-82.75538	US	FL
4147145	Bee Ridge	27.28394	-82.48065	US	FL
4147241	Belle Glade	26.68451	-80.66756	US	FL
4147247	Belle Isle	28.45834	-81.35924	US	FL
4147290	Bellview	30.46159	-87.31497	US	FL
4147581	Beverly Hills	28.91692	-82.45815	US	FL
4148207	Bloomingdale	27.89364	-82.24037	US	FL
4148399	Boca Del Mar	26.34508	-80.14671	US	FL
4148012	Bithlo	28.55472	-81.10645	US	FL
4148411	Boca Raton	26.35869	-80.0831	US	FL
4148533	Bonita Springs	26.33981	-81.7787	US	FL
4148674	Boyette	27.81753	-82.22259	US	FL
4148677	Boynton Beach	26.52535	-80.06643	US	FL
4148708	Bradenton	27.49893	-82.57482	US	FL
4148757	Brandon	27.9378	-82.28592	US	FL
4148803	Brent	30.46881	-87.23608	US	FL
4146302	Asbury Lake	30.04913	-81.82149	US	FL
4148944	Broadview Park	26.09953	-80.20866	US	FL
4148986	Brooksville	28.55527	-82.38787	US	FL
4149077	Brownsville	25.82176	-80.24116	US	FL
4149269	Buenaventura Lakes	28.33584	-81.35313	US	FL
4149635	Callaway	30.15298	-85.56993	US	FL
4149956	Cantonment	30.60853	-87.33998	US	FL
4149959	Cape Canaveral	28.40584	-80.60477	US	FL
4149962	Cape Coral	26.56285	-81.94953	US	FL
4150066	Carol City	25.94065	-80.2456	US	FL
4150115	Carrollwood	28.05002	-82.49287	US	FL
4150118	Carrollwood Village	28.06752	-82.52093	US	FL
4150190	Casselberry	28.67778	-81.32785	US	FL
4150394	Celebration	28.32529	-81.53313	US	FL
4150727	Cheval	28.14862	-82.51454	US	FL
4151132	Citra	29.41192	-82.10982	US	FL
4151153	Citrus Hills	28.88831	-82.4326	US	FL
4151157	Citrus Park	28.07835	-82.56982	US	FL
4151162	Citrus Ridge	28.33385	-81.64232	US	FL
4151163	Citrus Springs	28.99748	-82.47065	US	FL
4151316	Clearwater	27.96585	-82.8001	US	FL
4151352	Clermont	28.54944	-81.77285	US	FL
4151366	Clewiston	26.75423	-80.93368	US	FL
4151440	Cocoa	28.38612	-80.742	US	FL
4151441	Cocoa Beach	28.32001	-80.60755	US	FL
4151455	Coconut Creek	26.25175	-80.17894	US	FL
4151460	Coconut Grove	25.7126	-80.25699	US	FL
4151607	Combee Settlement	28.05835	-81.90536	US	FL
4151745	Conway	28.50278	-81.33062	US	FL
4151824	Cooper City	26.05731	-80.27172	US	FL
4151871	Coral Gables	25.72149	-80.26838	US	FL
4151909	Coral Springs	26.27119	-80.2706	US	FL
4151921	Coral Terrace	25.74593	-80.3045	US	FL
4152064	Country Walk	25.63399	-80.43228	US	FL
4152093	Country Club	25.94815	-80.317	US	FL
4152311	Crestview	30.76213	-86.57051	US	FL
4152472	Crystal Lake	28.03558	-81.90841	US	FL
4152564	Cutler	25.6151	-80.31061	US	FL
4152574	Cutler Ridge	25.58066	-80.34672	US	FL
4152628	Cypress Gardens	27.99391	-81.69008	US	FL
4152639	Cypress Lake	26.53813	-81.89925	US	FL
4152695	Dade City	28.36472	-82.19592	US	FL
4152772	Dania Beach	26.05231	-80.14393	US	FL
4152820	Davie	26.06287	-80.2331	US	FL
4152872	Daytona Beach	29.21081	-81.02283	US	FL
4152888	DeFuniak Springs	30.72102	-86.11522	US	FL
4152890	DeLand	29.02832	-81.30312	US	FL
4152926	DeBary	28.88305	-81.30868	US	FL
4153071	Deerfield Beach	26.31841	-80.09977	US	FL
4153132	Delray Beach	26.46146	-80.07282	US	FL
4153146	Deltona	28.90054	-81.26367	US	FL
4153188	Destin	30.39353	-86.49578	US	FL
4153367	Doctor Phillips	28.44945	-81.49229	US	FL
4153471	Doral	25.81954	-80.35533	US	FL
4153759	Dunedin	28.01974	-82.77177	US	FL
4154008	East Lake	28.11085	-82.69482	US	FL
4154023	East Milton	30.61519	-87.02163	US	FL
4154047	East Pensacola Heights	30.42881	-87.17997	US	FL
4154051	East Perrine	25.60872	-80.33894	US	FL
4154205	Edgewater	28.98888	-80.90228	US	FL
4154270	Eglin Village	30.46298	-86.5394	US	FL
4154280	Egypt Lake-Leto	28.01769	-82.50619	US	FL
4154336	Elfers	28.21668	-82.72232	US	FL
4154465	Englewood	26.96201	-82.3526	US	FL
4154489	Ensley	30.51881	-87.27275	US	FL
4154568	Estero	26.43814	-81.80675	US	FL
4154606	Eustis	28.85277	-81.68535	US	FL
4154769	Fairview Shores	28.59111	-81.39424	US	FL
4154972	Fellsmere	27.76781	-80.60144	US	FL
4155006	Fernandina Beach	30.66968	-81.46259	US	FL
4155000	Fern Park	28.64916	-81.35118	US	FL
4155017	Ferry Pass	30.5102	-87.21247	US	FL
4155430	Fish Hawk	27.85058	-82.21092	US	FL
4155529	Flagami	25.76232	-80.31616	US	FL
4155623	Floral City	28.74999	-82.29676	US	FL
4155669	Florida City	25.44789	-80.47922	US	FL
4155726	Florida Ridge	27.58031	-80.38672	US	FL
4155824	Forest City	28.66678	-81.44334	US	FL
4155966	Fort Lauderdale	26.12231	-80.14338	US	FL
4155988	Fort Meade	27.75225	-81.80175	US	FL
4155995	Fort Myers	26.62168	-81.84059	US	FL
4155996	Fort Myers Beach	26.45202	-81.94814	US	FL
4156006	Fort Myers Shores	26.70924	-81.74592	US	FL
4156018	Fort Pierce	27.44671	-80.32561	US	FL
4156042	Fort Walton Beach	30.40576	-86.61884	US	FL
4156091	Fountainebleau	25.77288	-80.34783	US	FL
4156331	Fruit Cove	30.11107	-81.64176	US	FL
4156340	Fruitville	27.32977	-82.4576	US	FL
4156367	Fuller Heights	27.90919	-81.99814	US	FL
4156370	Fussels Corner	28.05419	-81.86064	US	FL
4156404	Gainesville	29.65163	-82.32483	US	FL
4156601	Gateway	26.57757	-81.75036	US	FL
4156748	Gibsonton	27.85364	-82.38259	US	FL
4156752	Gifford	27.67531	-80.40922	US	FL
4156824	Gladeview	25.83926	-80.2356	US	FL
4156857	Glenvar Heights	25.7076	-80.32561	US	FL
4156920	Golden Gate	26.18787	-81.69509	US	FL
4156931	Golden Glades	25.91176	-80.20033	US	FL
4156959	Goldenrod	28.61028	-81.28868	US	FL
4156975	Gonzalez	30.58158	-87.29136	US	FL
4157097	Goulds	25.56261	-80.38228	US	FL
4157427	Green Cove Springs	29.99191	-81.67815	US	FL
4157467	Greenacres City	26.62368	-80.12532	US	FL
4157605	Groveland	28.55805	-81.85119	US	FL
4157634	Gulf Breeze	30.35714	-87.16386	US	FL
4157657	Gulf Gate Estates	27.25173	-82.51471	US	FL
4157687	Gulfport	27.74836	-82.70343	US	FL
4157827	Haines City	28.11418	-81.61785	US	FL
4157898	Hallandale Beach	25.9812	-80.14838	US	FL
4158296	Heathrow	28.76333	-81.37224	US	FL
4158445	Hernando	28.89998	-82.37454	US	FL
4158476	Hialeah	25.8576	-80.27811	US	FL
4158482	Hialeah Gardens	25.8651	-80.3245	US	FL
4158595	High Springs	29.82691	-82.59678	US	FL
4158604	Highland City	27.9653	-81.87786	US	FL
4158758	Hobe Sound	27.0595	-80.13643	US	FL
4158865	Holiday	28.18779	-82.73955	US	FL
4158914	Holly Hill	29.24359	-81.03756	US	FL
4158928	Hollywood	26.0112	-80.14949	US	FL
4159050	Homestead	25.46872	-80.47756	US	FL
4159077	Homosassa Springs	28.80359	-82.57593	US	FL
4159335	Hudson	28.36445	-82.69343	US	FL
4159416	Hunters Creek	28.36056	-81.42229	US	FL
4159553	Immokalee	26.41869	-81.4173	US	FL
4159608	Indian Harbour Beach	28.1489	-80.58839	US	FL
4159659	Indian River Estates	27.36449	-80.30977	US	FL
4159687	Indiantown	27.02728	-80.48561	US	FL
4159786	Inverness	28.83582	-82.33037	US	FL
4159796	Inwood	28.03697	-81.76508	US	FL
4159805	Iona	26.52036	-81.96398	US	FL
4159839	Islamorada	24.9243	-80.62784	US	FL
4159896	Ives Estates	25.96231	-80.17671	US	FL
4160021	Jacksonville	30.33218	-81.65565	US	FL
4160023	Jacksonville Beach	30.29469	-81.39314	US	FL
4160086	Jan-Phyl Village	28.01474	-81.77175	US	FL
4160100	Jasmine Estates	28.29306	-82.6901	US	FL
4160171	Jensen Beach	27.25449	-80.22977	US	FL
4160610	Jupiter	26.93422	-80.09421	US	FL
4160651	Kathleen	28.12085	-82.02314	US	FL
4160705	Kendale Lakes	25.70816	-80.407	US	FL
4160711	Kendall	25.67927	-80.31727	US	FL
4160789	Key Biscayne	25.69371	-80.16282	US	FL
4160795	Key Largo	25.08652	-80.44728	US	FL
4160812	Key West	24.5557	-81.78259	US	FL
4160822	Keystone	28.15585	-82.62121	US	FL
4160932	Kings Point	26.44535	-80.13977	US	FL
4160983	Kissimmee	28.30468	-81.41667	US	FL
4161118	Lady Lake	28.91749	-81.92286	US	FL
4161150	Lake Alfred	28.09196	-81.72341	US	FL
4161178	Lake Butler	28.50167	-81.54091	US	FL
4161187	Lake City	30.18968	-82.63929	US	FL
4161228	Lake Forest	25.97759	-80.1831	US	FL
4161296	Lake Lorraine	30.44159	-86.56523	US	FL
4161298	Lake Lucerne	25.96509	-80.24144	US	FL
4161313	Lake Magdalene	28.07418	-82.47176	US	FL
4161334	Lake Park	26.80034	-80.06643	US	FL
4161373	Lake Mary	28.75888	-81.31784	US	FL
4161400	Lake Wales	27.90141	-81.58591	US	FL
4161422	Lake Worth	26.6159	-80.05699	US	FL
4161424	Lake Worth Corridor	26.61649	-80.10102	US	FL
4161438	Lakeland	28.03947	-81.9498	US	FL
4161444	Lakeland Highlands	27.95975	-81.95008	US	FL
4161460	Lakes by the Bay	25.57233	-80.32533	US	FL
4161461	Lakeside	30.12996	-81.76815	US	FL
4161510	Lakewood Park	27.54309	-80.40227	US	FL
4161511	Lakewood Park	27.48143	-80.37422	US	FL
4161534	Land O' Lakes	28.2189	-82.45759	US	FL
4161571	Lantana	26.58674	-80.05199	US	FL
4161580	Largo	27.90947	-82.78732	US	FL
4161616	Lauderdale Lakes	26.16647	-80.20838	US	FL
4161624	Lauderdale-by-the-Sea	26.19203	-80.09643	US	FL
4161625	Lauderhill	26.14036	-80.21338	US	FL
4161659	Laurel	27.14378	-82.46158	US	FL
4161705	Lealman	27.82114	-82.67927	US	FL
4161733	Lecanto	28.85165	-82.4876	US	FL
4161771	Leesburg	28.81082	-81.87786	US	FL
4161785	Lehigh Acres	26.62535	-81.6248	US	FL
4161797	Leisure City	25.49539	-80.42922	US	FL
4161957	Lighthouse Point	26.27564	-80.08727	US	FL
4162461	Live Oak	30.29495	-82.98402	US	FL
4162539	Lockhart	28.61944	-81.44257	US	FL
4162776	Longboat Key	27.41254	-82.65899	US	FL
4162783	Longwood	28.70305	-81.3384	US	FL
4163033	Lutz	28.15112	-82.46148	US	FL
4163049	Lynn Haven	30.24548	-85.64826	US	FL
4163083	Macclenny	30.28218	-82.12206	US	FL
4163220	Maitland	28.62778	-81.36312	US	FL
4163318	Mango	27.97974	-82.30648	US	FL
4163379	Marathon	24.71375	-81.09035	US	FL
4163384	Marco	25.9726	-81.72898	US	FL
4163407	Margate	26.24453	-80.20644	US	FL
4163428	Marianna	30.77436	-85.22687	US	FL
4163635	Mascotte	28.57833	-81.88675	US	FL
4163833	McGregor	26.56091	-81.91453	US	FL
4163918	Meadow Woods	28.38556	-81.36646	US	FL
4163954	Medulla	27.9678	-81.97342	US	FL
4163971	Melbourne	28.08363	-80.60811	US	FL
4163994	Melrose Park	26.11342	-80.19338	US	FL
4164047	Memphis	27.53587	-82.56121	US	FL
4164092	Merritt Island	28.53917	-80.672	US	FL
4164138	Miami	25.77427	-80.19366	US	FL
4164143	Miami Beach	25.79065	-80.13005	US	FL
4164167	Miami Gardens	25.94204	-80.2456	US	FL
4164186	Miami Lakes	25.90871	-80.30866	US	FL
4164211	Miami Shores	25.86315	-80.19283	US	FL
4164223	Miami Springs	25.82232	-80.2895	US	FL
4164253	Micco	27.88058	-80.50033	US	FL
4164387	Middleburg	30.06885	-81.86038	US	FL
4164547	Milton	30.63241	-87.03969	US	FL
4164554	Mims	28.66527	-80.84478	US	FL
4164575	Minneola	28.57444	-81.74619	US	FL
4164601	Miramar	25.98731	-80.23227	US	FL
4164602	Miramar Beach	30.37437	-86.35856	US	FL
4165069	Mount Dora	28.80249	-81.64452	US	FL
4165519	Myrtle Grove	30.42103	-87.30747	US	FL
4165565	Naples	26.14204	-81.79481	US	FL
4165574	Naples Manor	26.0887	-81.7262	US	FL
4165576	Naples Park	26.26175	-81.80925	US	FL
4165580	Naranja	25.51816	-80.42283	US	FL
4165637	Navarre	30.40159	-86.86357	US	FL
4165695	Neptune Beach	30.31191	-81.39647	US	FL
4165869	New Port Richey	28.24418	-82.71927	US	FL
4165913	New Smyrna Beach	29.02582	-80.927	US	FL
4165995	Niceville	30.51686	-86.48217	US	FL
4166066	Norland	25.94898	-80.21227	US	FL
4166096	North Andrews Gardens	26.19147	-80.14421	US	FL
4166105	North Bay Village	25.84621	-80.15394	US	FL
4166195	North Fort Myers	26.66729	-81.88009	US	FL
4166222	North Lauderdale	26.2173	-80.22588	US	FL
4166232	North Miami	25.89009	-80.18671	US	FL
4166233	North Miami Beach	25.93315	-80.16255	US	FL
4166253	North Palm Beach	26.81756	-80.08199	US	FL
4166274	North Port	27.04422	-82.23593	US	FL
4166298	North Sarasota	27.37393	-82.51843	US	FL
4166583	Oak Ridge	28.47112	-81.42452	US	FL
4166638	Oakland Park	26.17231	-80.13199	US	FL
4166673	Ocala	29.1872	-82.14009	US	FL
4166723	Ocean City	30.44103	-86.61356	US	FL
4166776	Ocoee	28.56917	-81.54396	US	FL
4166787	Odessa	28.1939	-82.59176	US	FL
4166805	Ojus	25.94843	-80.1506	US	FL
4166822	Okeechobee	27.24393	-80.82978	US	FL
4166936	Oldsmar	28.03418	-82.6651	US	FL
4166979	Olympia Heights	25.72677	-80.35533	US	FL
4167003	Opa-locka	25.90232	-80.25033	US	FL
4167055	Orange City	28.94888	-81.29867	US	FL
4167102	Orange Park	30.16607	-81.70648	US	FL
4167147	Orlando	28.53834	-81.37924	US	FL
4167176	Orlovista	28.53834	-81.46035	US	FL
4167178	Ormond Beach	29.28581	-81.05589	US	FL
4167190	Ormond-by-the-Sea	29.34914	-81.06645	US	FL
4167245	Osprey	27.19616	-82.49037	US	FL
4167348	Oviedo	28.67	-81.20812	US	FL
4167424	Pace	30.59936	-87.16108	US	FL
4167473	Pahokee	26.82006	-80.66534	US	FL
4167482	Palatka	29.64858	-81.63758	US	FL
4167499	Palm Bay	28.03446	-80.58866	US	FL
4167505	Palm Beach	26.70562	-80.03643	US	FL
4167519	Palm Beach Gardens	26.82339	-80.13865	US	FL
4167536	Palm City	27.16783	-80.26616	US	FL
4167538	Palm Coast	29.58497	-81.20784	US	FL
4167545	Palm Harbor	28.07807	-82.76371	US	FL
4167583	Palm Springs	26.6359	-80.09615	US	FL
4167594	Palm Springs North	25.9351	-80.33383	US	FL
4167601	Palm Valley	30.17746	-81.38758	US	FL
4167632	Palmetto	27.52143	-82.57232	US	FL
4167634	Palmetto Bay	25.62177	-80.32477	US	FL
4167647	Palmetto Estates	25.62149	-80.362	US	FL
4167694	Panama City	30.15946	-85.65983	US	FL
4167695	Panama City Beach	30.17659	-85.80549	US	FL
4167829	Parkland	26.31008	-80.23727	US	FL
4168062	Pebble Creek	28.14835	-82.34565	US	FL
4168095	Pelican Bay	26.2312	-81.80564	US	FL
4168138	Pembroke Park	25.98787	-80.17477	US	FL
4168139	Pembroke Pines	26.00315	-80.22394	US	FL
4168228	Pensacola	30.42131	-87.21691	US	FL
4168244	Perry	30.11744	-83.58181	US	FL
4168418	Pine Castle	28.47195	-81.36785	US	FL
4168459	Pine Hills	28.55778	-81.4534	US	FL
4168506	Pine Island Ridge	26.09481	-80.27394	US	FL
4168563	Pine Ridge	28.93831	-82.47343	US	FL
4168590	Pinecrest	25.66705	-80.30811	US	FL
4168630	Pinellas Park	27.8428	-82.69954	US	FL
4168659	Pinewood	25.86898	-80.21699	US	FL
4168773	Plant City	28.01863	-82.11286	US	FL
4168782	Plantation	26.13421	-80.23184	US	FL
4168930	Poinciana	28.14029	-81.45841	US	FL
4169014	Pompano Beach	26.23786	-80.12477	US	FL
4169018	Pompano Beach Highlands	26.28286	-80.10699	US	FL
4169060	Ponte Vedra Beach	30.23969	-81.38564	US	FL
4169130	Port Charlotte	26.97617	-82.09064	US	FL
4169156	Port Orange	29.13832	-80.99561	US	FL
4169170	Port Saint John	28.47695	-80.78867	US	FL
4169171	Port Saint Lucie	27.29393	-80.35033	US	FL
4169176	Port Salerno	27.14422	-80.2006	US	FL
4169345	Princeton	25.53844	-80.40894	US	FL
4169378	Progress Village	27.9003	-82.36454	US	FL
4169452	Punta Gorda	26.92978	-82.04537	US	FL
4169455	Punta Gorda Isles	26.91756	-82.07842	US	FL
4169510	Quincy	30.58714	-84.58325	US	FL
4170000	Richmond Heights	25.63149	-80.36894	US	FL
4170005	Richmond West	25.6105	-80.42971	US	FL
4170092	River Park	27.31421	-80.34727	US	FL
4170156	Riverview	27.86614	-82.32648	US	FL
4170174	Riviera Beach	26.77534	-80.0581	US	FL
4170358	Rockledge	28.35084	-80.72533	US	FL
4170556	Rotonda	26.88368	-82.29009	US	FL
4170617	Royal Palm Beach	26.7084	-80.2306	US	FL
4170688	Ruskin	27.72086	-82.43315	US	FL
4170797	Safety Harbor	27.99085	-82.69316	US	FL
4170894	Saint Augustine	29.89469	-81.31452	US	FL
4170896	Saint Augustine Beach	29.85053	-81.26535	US	FL
4170908	Saint Augustine Shores	29.8108	-81.31035	US	FL
4170965	Saint Cloud	28.2489	-81.28118	US	FL
4171522	Saint Pete Beach	27.72531	-82.74121	US	FL
4171563	Saint Petersburg	27.77086	-82.67927	US	FL
4171782	San Carlos Park	26.4673	-81.80147	US	FL
4172052	Sanibel	26.44897	-82.02231	US	FL
4172086	Sanford	28.80055	-81.27312	US	FL
4172131	Sarasota	27.33643	-82.53065	US	FL
4172150	Sarasota Springs	27.30894	-82.47954	US	FL
4172173	Satellite Beach	28.17612	-80.59005	US	FL
4172294	Scott Lake	25.94148	-80.23199	US	FL
4172372	Sebastian	27.81642	-80.47061	US	FL
4172383	Sebring	27.49559	-81.44091	US	FL
4172413	Seffner	27.98363	-82.27565	US	FL
4172434	Seminole	27.83975	-82.79121	US	FL
4172602	Shady Hills	28.41	-82.54288	US	FL
4172935	Siesta Key	27.30199	-82.55149	US	FL
4173007	Silver Springs Shores	29.10442	-82.02064	US	FL
4173124	Sky Lake	28.45723	-81.39146	US	FL
4173392	South Bradenton	27.4631	-82.58176	US	FL
4173394	South Apopka	28.66194	-81.50952	US	FL
4173431	South Daytona	29.16582	-81.0045	US	FL
4173460	South Gate Ridge	27.28644	-82.49676	US	FL
4173467	South Highpoint	27.91697	-82.71288	US	FL
4173495	South Miami	25.7076	-80.29338	US	FL
4173497	South Miami Heights	25.59761	-80.38061	US	FL
4173528	South Patrick Shores	28.20223	-80.6095	US	FL
4173593	South Venice	27.05311	-82.42426	US	FL
4173600	Southchase	28.39306	-81.3834	US	FL
4173634	Southgate	27.3081	-82.50982	US	FL
4173717	Southwest Ranches	26.0587	-80.33727	US	FL
4173838	Spring Hill	28.47688	-82.52546	US	FL
4173892	Springfield	30.15326	-85.61132	US	FL
4173999	Starke	29.94413	-82.10983	US	FL
4174201	Stuart	27.19755	-80.25283	US	FL
4174252	Sugarmill Woods	28.73221	-82.50621	US	FL
4174317	Sun City Center	27.71809	-82.35176	US	FL
4174383	Sunny Isles Beach	25.95065	-80.12282	US	FL
4174402	Sunrise	26.15767	-80.28611	US	FL
4174425	Sunset	25.70594	-80.35228	US	FL
4174518	Surfside	25.87843	-80.1256	US	FL
4174600	Sweetwater	25.76343	-80.37311	US	FL
4174715	Tallahassee	30.43826	-84.28073	US	FL
4174738	Tamarac	26.21286	-80.24977	US	FL
4174744	Tamiami	25.75871	-80.39839	US	FL
4174757	Tampa	27.94752	-82.45843	US	FL
4174855	Tarpon Springs	28.14612	-82.75677	US	FL
4174861	Tavares	28.80416	-81.72563	US	FL
4174969	Temple Terrace	28.0353	-82.38926	US	FL
4175011	Tequesta	26.96811	-80.12865	US	FL
4175091	The Crossings	25.67066	-80.40117	US	FL
4175117	The Hammocks	25.67149	-80.4445	US	FL
4175179	The Villages	28.93408	-81.95994	US	FL
4175269	Thonotosassa	28.06141	-82.30231	US	FL
4175296	Three Lakes	25.64205	-80.39839	US	FL
4175391	Timber Pines	28.47028	-82.60316	US	FL
4175437	Titusville	28.61222	-80.80755	US	FL
4175538	Town 'n' Country	28.01057	-82.57732	US	FL
4175626	Treasure Island	27.76919	-82.76899	US	FL
4176109	Union Park	28.56806	-81.28618	US	FL
4176217	University Park	25.74649	-80.36755	US	FL
4176277	Upper Grand Lagoon	30.16326	-85.74076	US	FL
4176316	Valparaiso	30.50853	-86.50273	US	FL
4176318	Valrico	27.93789	-82.23644	US	FL
4176380	Venice	27.09978	-82.45426	US	FL
4176387	Venice Gardens	27.07311	-82.4076	US	FL
4176409	Vero Beach	27.63864	-80.39727	US	FL
4177450	Warm Mineral Springs	27.05978	-82.26009	US	FL
4177308	Wahneta	27.9528	-81.72702	US	FL
4177465	Warrington	30.38409	-87.27497	US	FL
4177569	Wauchula	27.54726	-81.81147	US	FL
4177617	Wedgefield	28.48778	-81.07729	US	FL
4177671	Wekiwa Springs	28.69861	-81.42563	US	FL
4177703	Wellington	26.65868	-80.24144	US	FL
4177727	Wesley Chapel	28.23973	-82.32787	US	FL
4177779	Westchase	28.05502	-82.60982	US	FL
4177865	West Little River	25.85704	-80.23699	US	FL
4177872	West Melbourne	28.07168	-80.65339	US	FL
4177874	West Miami	25.76343	-80.29616	US	FL
4177887	West Palm Beach	26.71534	-80.05337	US	FL
4177897	West Park	25.98454	-80.19894	US	FL
4177908	West Pensacola	30.42659	-87.27969	US	FL
4177917	West Perrine	25.60594	-80.36283	US	FL
4177930	West Samoset	27.46948	-82.55676	US	FL
4177950	West Vero Corridor	27.63775	-80.48576	US	FL
4177960	West and East Lealman	27.81993	-82.68944	US	FL
4177965	Westchester	25.75482	-80.32727	US	FL
4178032	Westview	25.88204	-80.24199	US	FL
4178003	Weston	26.10037	-80.39977	US	FL
4178053	Westwood Lake	25.72927	-80.37283	US	FL
4178292	Wildwood	28.86526	-82.03897	US	FL
4178397	Williamsburg	28.41445	-81.44285	US	FL
4178449	Willow Oak	27.91614	-82.01786	US	FL
4178485	Wilton Manors	26.16036	-80.13893	US	FL
4178488	Wimauma	27.71253	-82.29898	US	FL
4178540	Winston	28.03169	-82.01481	US	FL
4178550	Winter Garden	28.56528	-81.58618	US	FL
4178552	Winter Haven	28.02224	-81.73286	US	FL
4178560	Winter Park	28.6	-81.33924	US	FL
4178573	Winter Springs	28.69889	-81.30812	US	FL
4178775	Wright	30.45575	-86.63829	US	FL
4178919	Yulee	30.6319	-81.60649	US	FL
4178941	Zephyrhills	28.23362	-82.18119	US	FL
4179074	Acworth	34.06593	-84.67688	US	GA
4179193	Adel	31.13714	-83.42349	US	GA
4179320	Albany	31.57851	-84.15574	US	GA
4179574	Alpharetta	34.07538	-84.29409	US	GA
4179667	Americus	32.07239	-84.23269	US	GA
4180386	Athens	33.96095	-83.37794	US	GA
4180439	Atlanta	33.749	-84.38798	US	GA
4180512	Auburn	34.01372	-83.82768	US	GA
4180531	Augusta	33.47097	-81.97484	US	GA
4180564	Austell	33.81261	-84.63438	US	GA
4180775	Bainbridge	30.9038	-84.57547	US	GA
4181110	Barnesville	33.05457	-84.15575	US	GA
4181936	Belvedere Park	33.75483	-84.26742	US	GA
4183363	Blakely	31.37768	-84.93409	US	GA
4184165	Braselton	34.10927	-83.76267	US	GA
4184222	Bremen	33.72122	-85.1455	US	GA
4184845	Brunswick	31.14995	-81.49149	US	GA
4185110	Buford	34.12066	-84.00435	US	GA
4185632	Cairo	30.87741	-84.20129	US	GA
4185657	Calhoun	34.50259	-84.95105	US	GA
4185863	Camilla	31.23129	-84.21046	US	GA
4186213	Canton	34.23676	-84.49076	US	GA
4186416	Carrollton	33.58011	-85.07661	US	GA
4186531	Cartersville	34.1651	-84.79994	US	GA
4186955	Cedartown	34.05371	-85.25495	US	GA
4187055	Centerville	32.63014	-83.68963	US	GA
4187204	Chamblee	33.89205	-84.29881	US	GA
4188233	Clarkston	33.80955	-84.23964	US	GA
4188590	Cochran	32.38683	-83.35461	US	GA
4188815	College Park	33.65344	-84.44937	US	GA
4188985	Columbus	32.46098	-84.98771	US	GA
4189014	Commerce	34.204	-83.45711	US	GA
4189157	Conley	33.64483	-84.32576	US	GA
4189213	Conyers	33.66761	-84.01769	US	GA
4189423	Cordele	31.96351	-83.78239	US	GA
4189612	Country Club Estates	33.98928	-83.4096	US	GA
4189613	Country Club Estates	31.21273	-81.46427	US	GA
4189785	Covington	33.59678	-83.86018	US	GA
4190396	Cumming	34.20732	-84.14019	US	GA
4190434	Cusseta	32.30543	-84.7727	US	GA
4190542	Dahlonega	34.53259	-83.98491	US	GA
4190581	Dalton	34.7698	-84.97022	US	GA
4190598	Dallas	33.92371	-84.84077	US	GA
4191124	Decatur	33.77483	-84.29631	US	GA
4191628	Dock Junction	31.20245	-81.51677	US	GA
4191768	Doraville	33.89816	-84.28326	US	GA
4191916	Douglas	31.50881	-82.84987	US	GA
4191955	Douglasville	33.7515	-84.74771	US	GA
4192088	Druid Hills	33.78038	-84.33604	US	GA
4192205	Dublin	32.54044	-82.90375	US	GA
4192289	Duluth	34.00288	-84.14464	US	GA
4192375	Dunwoody	33.94621	-84.33465	US	GA
4192674	East Point	33.67955	-84.43937	US	GA
4192800	Eatonton	33.3268	-83.3885	US	GA
4193699	Evans	33.53375	-82.13067	US	GA
4194111	Fair Oaks	33.91649	-84.54465	US	GA
4194121	Fairburn	33.56706	-84.58104	US	GA
4194202	Fairview	34.94563	-85.2844	US	GA
4194474	Fayetteville	33.44873	-84.45493	US	GA
4195168	Fitzgerald	31.71491	-83.25265	US	GA
4195544	Flowery Branch	34.1851	-83.92518	US	GA
4195701	Forest Park	33.62205	-84.36909	US	GA
4195850	Fort Oglethorpe	34.94896	-85.2569	US	GA
4195869	Fort Valley	32.55376	-83.88741	US	GA
4196586	Gainesville	34.29788	-83.82407	US	GA
4196688	Garden City	32.11437	-81.154	US	GA
4196917	Georgetown	31.98326	-81.22733	US	GA
4198298	Gresham Park	33.70344	-84.31437	US	GA
4198322	Griffin	33.24678	-84.26409	US	GA
4198514	Grovetown	33.45042	-82.19818	US	GA
4198972	Hampton	33.38706	-84.28298	US	GA
4199075	Hapeville	33.66011	-84.4102	US	GA
4200671	Hinesville	31.84688	-81.59595	US	GA
4201047	Holly Springs	34.17399	-84.50132	US	GA
4202260	Irondale	33.48067	-84.35881	US	GA
4202426	Jackson	33.29457	-83.96602	US	GA
4202672	Jefferson	34.11705	-83.57239	US	GA
4202810	Jesup	31.60744	-81.88539	US	GA
4203696	Kennesaw	34.02343	-84.61549	US	GA
4204007	Kingsland	30.79996	-81.68983	US	GA
4204230	La Grange	33.03929	-85.03133	US	GA
4204241	LaFayette	34.7048	-85.2819	US	GA
4205196	Lawrenceville	33.95621	-83.98796	US	GA
4205724	Lilburn	33.8901	-84.14297	US	GA
4205885	Lithia Springs	33.794	-84.66049	US	GA
4206502	Locust Grove	33.34595	-84.10908	US	GA
4206547	Loganville	33.839	-83.90074	US	GA
4206905	Lovejoy	33.43622	-84.31437	US	GA
4207226	Mableton	33.81574	-84.56194	US	GA
4207400	Macon	32.84069	-83.6324	US	GA
4207783	Marietta	33.9526	-84.54993	US	GA
4207981	Martinez	33.51736	-82.07567	US	GA
4208442	McDonough	33.44734	-84.14686	US	GA
4208683	McRae	32.06795	-82.9007	US	GA
4209448	Milledgeville	33.08014	-83.2321	US	GA
4209884	Monroe	33.79484	-83.71323	US	GA
4210254	Morrow	33.58317	-84.33937	US	GA
4210397	Moultrie	31.17991	-83.78906	US	GA
4211428	Mountain Park	33.84427	-84.12936	US	GA
4212684	Newnan	33.38067	-84.79966	US	GA
4212888	Norcross	33.94121	-84.21353	US	GA
4212937	North Atlanta	33.8651	-84.33659	US	GA
4212992	North Decatur	33.79038	-84.30603	US	GA
4212995	North Druid Hills	33.81677	-84.31326	US	GA
4215110	Peachtree City	33.39678	-84.59576	US	GA
4214693	Panthersville	33.70733	-84.27187	US	GA
4215391	Perry	32.45821	-83.73157	US	GA
4216948	Pooler	32.11548	-81.24706	US	GA
4217075	Port Wentworth	32.14909	-81.16317	US	GA
4217214	Powder Springs	33.85955	-84.68382	US	GA
4218165	Redan	33.74538	-84.13158	US	GA
4218752	Richmond Hill	31.93827	-81.30344	US	GA
4218882	Rincon	32.29603	-81.23539	US	GA
4219001	Riverdale	33.57261	-84.41326	US	GA
4219762	Rome	34.25704	-85.16467	US	GA
4220629	Saint Marys	30.73051	-81.54649	US	GA
4219934	Roswell	34.02316	-84.36159	US	GA
4220861	Saint Simon Mills	31.17079	-81.40732	US	GA
4220862	Saint Simons	31.13523	-81.3901	US	GA
4221206	Sandersville	32.98154	-82.81014	US	GA
4221333	Sandy Springs	33.92427	-84.37854	US	GA
4221552	Savannah	32.08354	-81.09983	US	GA
4221732	Scottdale	33.78983	-84.26409	US	GA
4223004	Skidaway Island	31.93494	-81.04705	US	GA
4223379	Smyrna	33.88399	-84.51438	US	GA
4223413	Snellville	33.85733	-84.01991	US	GA
4224413	Statesboro	32.44879	-81.78317	US	GA
4224681	Stockbridge	33.54428	-84.23381	US	GA
4224745	Stone Mountain	33.80816	-84.1702	US	GA
4225039	Sugar Hill	34.10649	-84.03352	US	GA
4225309	Suwanee	34.05149	-84.0713	US	GA
4225346	Swainsboro	32.59739	-82.33374	US	GA
4225522	Sylvester	31.53073	-83.83545	US	GA
4226348	Thomasville	30.83658	-83.97878	US	GA
4226364	Thomaston	32.88819	-84.32659	US	GA
4226435	Thomson	33.47069	-82.50457	US	GA
4226552	Tifton	31.45046	-83.5085	US	GA
4226722	Toccoa	34.57732	-83.33239	US	GA
4227213	Tucker	33.85455	-84.21714	US	GA
4227612	Tyrone	33.47123	-84.59715	US	GA
4227777	Union City	33.58706	-84.54243	US	GA
4228425	Vidalia	32.21769	-82.41346	US	GA
4228452	Villa Rica	33.73205	-84.91911	US	GA
4228518	Vinings	33.86483	-84.46437	US	GA
4228147	Valdosta	30.8327	-83.27849	US	GA
4229476	Warner Robins	32.62098	-83.5999	US	GA
4229763	Waycross	31.21355	-82.35402	US	GA
4229791	Waynesboro	33.08987	-82.01567	US	GA
4230760	Whitemarsh Island	32.02882	-81.01678	US	GA
4231354	Wilmington Island	32.00355	-80.97372	US	GA
4231874	Woodstock	34.10149	-84.51938	US	GA
4231523	Winder	33.99261	-83.72017	US	GA
4232679	Alton	38.8906	-90.18428	US	IL
4233586	Benton	37.99672	-88.92007	US	IL
4233662	Bethalto	38.90921	-90.04066	US	IL
4233813	Belleville	38.52005	-89.98399	US	IL
4234969	Cahokia	38.57088	-90.19011	US	IL
4235193	Carbondale	37.72727	-89.21675	US	IL
4235211	Carlinville	39.27977	-89.88177	US	IL
4235311	Carterville	37.76005	-89.0773	US	IL
4235246	Carmi	38.09088	-88.15865	US	IL
4235587	Centralia	38.52505	-89.1334	US	IL
4235600	Centreville	38.58338	-90.12511	US	IL
4235668	Charleston	39.49615	-88.17615	US	IL
4235683	Chatham	39.67616	-89.70454	US	IL
4235724	Chester	37.91366	-89.82205	US	IL
4236191	Collinsville	38.67033	-89.98455	US	IL
4236895	Decatur	39.84031	-88.9548	US	IL
4236206	Columbia	38.44366	-90.20122	US	IL
4237312	Du Quoin	38.01144	-89.23619	US	IL
4237473	East Alton	38.88033	-90.11122	US	IL
4237579	East Saint Louis	38.6245	-90.15094	US	IL
4237717	Edwardsville	38.81144	-89.95316	US	IL
4237727	Effingham	39.12004	-88.54338	US	IL
4238081	Fairfield	38.37894	-88.35977	US	IL
4238132	Fairview Heights	38.58894	-89.99038	US	IL
4238777	Flora	38.66894	-88.4856	US	IL
4239465	Glen Carbon	38.74838	-89.98316	US	IL
4239509	Godfrey	38.9556	-90.18678	US	IL
4239714	Granite City	38.70144	-90.14872	US	IL
4239867	Greenville	38.89227	-89.41314	US	IL
4240284	Harrisburg	37.73838	-88.54061	US	IL
4240540	Herrin	37.80311	-89.02757	US	IL
4240679	Highland	38.73949	-89.6712	US	IL
4240782	Hillsboro	39.16116	-89.4937	US	IL
4241704	Jacksonville	39.73394	-90.22901	US	IL
4241822	Jerseyville	39.12005	-90.32845	US	IL
4243131	Litchfield	39.17533	-89.65426	US	IL
4243899	Marion	37.73061	-88.93313	US	IL
4244026	Maryville	38.72366	-89.95593	US	IL
4244031	Mascoutah	38.49033	-89.79315	US	IL
4244099	Mattoon	39.48309	-88.37283	US	IL
4244462	Metropolis	37.15117	-88.732	US	IL
4244967	Mount Carmel	38.41088	-87.76142	US	IL
4245152	Mount Vernon	38.31727	-88.90312	US	IL
4245174	Mount Zion	39.77143	-88.87424	US	IL
4245336	Murphysboro	37.7645	-89.33509	US	IL
4245926	O'Fallon	38.59227	-89.91121	US	IL
4246382	Olney	38.73088	-88.08532	US	IL
4246595	Pana	39.38893	-89.08008	US	IL
4246659	Paris	39.61115	-87.69614	US	IL
4246983	Pinckneyville	38.08033	-89.38203	US	IL
4247379	Pontoon Beach	38.73172	-90.08038	US	IL
4247703	Quincy	39.9356	-91.40987	US	IL
4248256	Robinson	39.00532	-87.73919	US	IL
4249286	Salem	38.62699	-88.94562	US	IL
4249910	Shiloh	38.56144	-89.89732	US	IL
4250542	Springfield	39.80172	-89.64371	US	IL
4251003	Swansea	38.53394	-89.98899	US	IL
4251141	Taylorville	39.54894	-89.29453	US	IL
4251513	Troy	38.72921	-89.88315	US	IL
4250608	Staunton	39.01227	-89.79121	US	IL
4251841	Upper Alton	38.91144	-90.15066	US	IL
4251917	Vandalia	38.9606	-89.09368	US	IL
4252548	Waterloo	38.33589	-90.14983	US	IL
4252812	West Frankfort	37.89783	-88.93146	US	IL
4253387	Wood River	38.86116	-90.09761	US	IL
4254021	Avon	39.76282	-86.39972	US	IN
4254185	Batesville	39.30005	-85.22218	US	IN
4254282	Bedford	38.86116	-86.48721	US	IN
4254304	Beech Grove	39.72199	-86.08998	US	IN
4254679	Bloomington	39.16532	-86.52639	US	IN
4254797	Boonville	38.04921	-87.27417	US	IN
4254884	Brazil	39.52365	-87.12502	US	IN
4254944	Bright	39.21839	-84.85606	US	IN
4254957	Broad Ripple	39.86671	-86.14165	US	IN
4255466	Carmel	39.97837	-86.11804	US	IN
4255056	Brownsburg	39.84338	-86.39777	US	IN
4255704	Charlestown	38.45312	-85.67024	US	IN
4255836	Clarksville	38.29674	-85.75996	US	IN
4256038	Columbus	39.20144	-85.92138	US	IN
4256085	Connersville	39.64116	-85.14107	US	IN
4256384	Cumberland	39.77615	-85.9572	US	IN
4256447	Danville	39.7606	-86.52639	US	IN
4257110	Ellettsville	39.23393	-86.625	US	IN
4257227	Evansville	37.97476	-87.55585	US	IN
4257494	Fishers	39.95559	-86.01387	US	IN
4258273	Greencastle	39.64449	-86.86473	US	IN
4258285	Greenfield	39.78504	-85.76942	US	IN
4258302	Greensburg	39.33727	-85.48358	US	IN
4258313	Greenwood	39.61366	-86.10665	US	IN
4258871	Hidden Valley	39.16228	-84.84301	US	IN
4259271	Huntingburg	38.29894	-86.955	US	IN
4259418	Indianapolis	39.76838	-86.15804	US	IN
4259640	Jasper	38.39144	-86.93111	US	IN
4259671	Jeffersonville	38.27757	-85.73718	US	IN
4260210	Lawrence	39.83865	-86.02526	US	IN
4260223	Lawrenceburg	39.09089	-84.84995	US	IN
4260453	Linton	39.03477	-87.16585	US	IN
4260768	Lowell	39.25311	-85.94638	US	IN
4260853	Madison	38.73589	-85.37996	US	IN
4261032	Martinsville	39.42783	-86.42833	US	IN
4261585	Mooresville	39.61282	-86.37416	US	IN
4261837	Mount Vernon	37.93227	-87.89503	US	IN
4262045	New Albany	38.28562	-85.82413	US	IN
4262159	New Whiteland	39.5581	-86.09526	US	IN
4262072	New Castle	39.92894	-85.37025	US	IN
4262293	North Madison	38.76784	-85.39662	US	IN
4262318	North Vernon	39.00616	-85.62358	US	IN
4262406	Oak Park	38.30562	-85.69635	US	IN
4263108	Plainfield	39.70421	-86.39944	US	IN
4263396	Princeton	38.35532	-87.56752	US	IN
4263681	Richmond	39.82894	-84.89024	US	IN
4263965	Rushville	39.60921	-85.44636	US	IN
4264334	Salem	38.60561	-86.10109	US	IN
4264555	Scottsburg	38.68561	-85.77025	US	IN
4264598	Sellersburg	38.39812	-85.75496	US	IN
4264617	Seymour	38.95922	-85.89025	US	IN
4264688	Shelbyville	39.52144	-85.77692	US	IN
4265146	Speedway	39.80227	-86.26721	US	IN
4265717	Tell City	37.95144	-86.76777	US	IN
4265737	Terre Haute	39.4667	-87.41391	US	IN
4266307	Vincennes	38.67727	-87.52863	US	IN
4266586	Washington	38.65922	-87.17279	US	IN
4267336	Zionsville	39.95087	-86.26194	US	IN
4267354	Abilene	38.91722	-97.21391	US	KS
4267594	Andover	37.7139	-97.13643	US	KS
4267661	Arkansas City	37.06197	-97.03837	US	KS
4267733	Atchison	39.56305	-95.12164	US	KS
4267773	Augusta	37.68668	-96.9767	US	KS
4268521	Bonner Springs	39.05973	-94.88358	US	KS
4269392	Chanute	37.67921	-95.4572	US	KS
4269789	Coffeyville	37.0373	-95.61637	US	KS
4269872	Concordia	39.57084	-97.66254	US	KS
4270269	De Soto	38.97917	-94.96858	US	KS
4270356	Derby	37.54557	-97.26893	US	KS
4270863	El Dorado	37.81724	-96.86225	US	KS
4271086	Emporia	38.4039	-96.18166	US	KS
4271196	Eudora	38.94334	-95.09858	US	KS
4271690	Fort Scott	37.83976	-94.7083	US	KS
4271935	Gardner	38.81084	-94.92719	US	KS
4272340	Great Bend	38.36446	-98.76481	US	KS
4272782	Hays	38.87918	-99.32677	US	KS
4272788	Haysville	37.56446	-97.35227	US	KS
4273299	Hutchinson	38.06084	-97.92977	US	KS
4273359	Independence	37.22424	-95.70831	US	KS
4273441	Iola	37.92448	-95.39998	US	KS
4273680	Junction City	39.02861	-96.8314	US	KS
4273837	Kansas City	39.11417	-94.62746	US	KS
4274236	Lansing	39.24861	-94.90024	US	KS
4274277	Lawrence	38.97167	-95.23525	US	KS
4274305	Leavenworth	39.31111	-94.92246	US	KS
4274317	Leawood	38.96667	-94.6169	US	KS
4274356	Lenexa	38.95362	-94.73357	US	KS
4274994	Manhattan	39.18361	-96.57167	US	KS
4275261	McPherson	38.37084	-97.66421	US	KS
4275393	Merriam	39.02362	-94.69357	US	KS
4275600	Mission	39.02778	-94.65579	US	KS
4276017	Mulvane	37.47446	-97.24393	US	KS
4276248	Newton	38.04668	-97.34504	US	KS
4276614	Olathe	38.8814	-94.81913	US	KS
4276816	Ottawa	38.61557	-95.26775	US	KS
4276873	Overland Park	38.98223	-94.67079	US	KS
4276956	Paola	38.57224	-94.87913	US	KS
4276974	Park City	37.80001	-97.31838	US	KS
4277011	Parsons	37.34034	-95.26108	US	KS
4277241	Pittsburg	37.41088	-94.70496	US	KS
4277718	Prairie Village	38.99167	-94.63357	US	KS
4277752	Pratt	37.64391	-98.73759	US	KS
4278272	Roeland Park	39.03751	-94.63218	US	KS
4278890	Salina	38.84028	-97.61142	US	KS
4279247	Shawnee	39.04167	-94.72024	US	KS
4279847	Spring Hill	38.74306	-94.82552	US	KS
4280539	Topeka	39.04833	-95.67804	US	KS
4280910	Valley Center	37.83473	-97.37338	US	KS
4281386	Wellington	37.2653	-97.37171	US	KS
4281730	Wichita	37.69224	-97.33754	US	KS
4281897	Winfield	37.23975	-96.99559	US	KS
4282342	Alexandria	38.95951	-84.38799	US	KY
4282757	Ashland	38.47841	-82.63794	US	KY
4283133	Bardstown	37.80923	-85.4669	US	KY
4283845	Bellevue	39.10645	-84.47883	US	KY
4283974	Berea	37.56869	-84.29632	US	KY
4285268	Bowling Green	36.99032	-86.4436	US	KY
4286037	Buckner	38.38368	-85.43996	US	KY
4286054	Buechel	38.19507	-85.6519	US	KY
4286281	Burlington	39.02756	-84.72411	US	KY
4286717	Campbellsville	37.3434	-85.34191	US	KY
4288230	Cold Spring	39.02173	-84.43994	US	KY
4287450	Central City	37.29393	-87.12333	US	KY
4288656	Corbin	36.9487	-84.09688	US	KY
4288809	Covington	39.08367	-84.50855	US	KY
4289323	Cynthiana	38.39035	-84.2941	US	KY
4289445	Danville	37.64563	-84.77217	US	KY
4289629	Dayton	39.11284	-84.47272	US	KY
4290181	Douglass Hills	38.23785	-85.55274	US	KY
4290873	Edgewood	39.01867	-84.58189	US	KY
4290988	Elizabethtown	37.69395	-85.85913	US	KY
4291156	Elsmere	39.01256	-84.60467	US	KY
4291255	Erlanger	39.01673	-84.60078	US	KY
4291373	Fairdale	38.10507	-85.75885	US	KY
4291620	Fern Creek	38.15979	-85.58774	US	KY
4291884	Flatwoods	38.52258	-82.71711	US	KY
4291945	Florence	38.99895	-84.62661	US	KY
4292067	Fort Mitchell	39.0595	-84.54744	US	KY
4292071	Fort Thomas	39.07506	-84.44716	US	KY
4292072	Fort Wright	39.05173	-84.53411	US	KY
4292182	Francisville	39.10506	-84.72439	US	KY
4292193	Franklin	36.72226	-86.57722	US	KY
4292188	Frankfort	38.20091	-84.87328	US	KY
4292686	Georgetown	38.2098	-84.55883	US	KY
4292826	Glasgow	36.99588	-85.91192	US	KY
4294180	Harrodsburg	37.7623	-84.84329	US	KY
4294425	Hebron	39.06589	-84.70106	US	KY
4294494	Henderson	37.83615	-87.59001	US	KY
4294788	Highland Heights	39.03312	-84.45189	US	KY
4294799	Highview	38.14285	-85.62413	US	KY
4294858	Hillview	38.06979	-85.68551	US	KY
4295251	Hopkinsville	36.8656	-87.48862	US	KY
4295776	Independence	38.94312	-84.54411	US	KY
4295940	Ironville	38.45647	-82.69238	US	KY
4296218	Jeffersontown	38.19424	-85.5644	US	KY
4297184	Knottsville	37.77172	-86.90416	US	KY
4297238	La Grange	38.40757	-85.37885	US	KY
4297581	Lawrenceburg	38.0373	-84.89662	US	KY
4297653	Lebanon	37.56979	-85.25274	US	KY
4297882	Leitchfield	37.48005	-86.29386	US	KY
4297983	Lexington	37.98869	-84.47772	US	KY
4298960	London	37.12898	-84.08326	US	KY
4299276	Louisville	38.25424	-85.75941	US	KY
4299562	Lyndon	38.25674	-85.60163	US	KY
4297999	Lexington-Fayette	38.0498	-84.45855	US	KY
4299670	Madisonville	37.3281	-87.49889	US	KY
4300105	Mayfield	36.74172	-88.63672	US	KY
4300152	Maysville	38.64119	-83.74436	US	KY
4300488	Meads	38.41258	-82.70905	US	KY
4300717	Middlesboro	36.60842	-83.71658	US	KY
4300725	Middletown	38.24535	-85.53885	US	KY
4301224	Monticello	36.82979	-84.84911	US	KY
4301229	Monticello	37.9923	-84.55022	US	KY
4301307	Morehead	38.18397	-83.43268	US	KY
4301317	Morehead	37.27115	-87.17638	US	KY
4301683	Mount Sterling	38.05647	-83.94326	US	KY
4301732	Mount Washington	38.05006	-85.54579	US	KY
4302035	Murray	36.61033	-88.31476	US	KY
4302504	Newburg	38.16007	-85.65968	US	KY
4302529	Newport	39.09145	-84.49578	US	KY
4302561	Nicholasville	37.88063	-84.573	US	KY
4302827	Oak Grove	36.66505	-87.44279	US	KY
4302828	Oak Grove	37.34421	-86.75471	US	KY
4302910	Oakbrook	38.99978	-84.68522	US	KY
4303012	Okolona	38.14118	-85.68774	US	KY
4303436	Owensboro	37.77422	-87.11333	US	KY
4303602	Paris	38.2098	-84.25299	US	KY
4304713	Pleasure Ridge Park	38.14535	-85.8583	US	KY
4304232	Pikeville	37.47927	-82.51876	US	KY
4305266	Princeton	37.10922	-87.88196	US	KY
4305504	Radcliff	37.84035	-85.94913	US	KY
4305974	Richmond	37.74786	-84.29465	US	KY
4307025	Russellville	36.84532	-86.88722	US	KY
4307238	Saint Matthews	38.25285	-85.65579	US	KY
4308122	Shelbyville	38.21201	-85.22357	US	KY
4308225	Shively	38.20007	-85.82274	US	KY
4308163	Shepherdsville	37.9884	-85.71579	US	KY
4308922	Somerset	37.09202	-84.60411	US	KY
4309414	Saint Dennis	38.1884	-85.8458	US	KY
4310616	Taylor Mill	38.99756	-84.49633	US	KY
4311646	Union	38.9459	-84.6805	US	KY
4311963	Valley Station	38.11118	-85.87024	US	KY
4312057	Versailles	38.05258	-84.72995	US	KY
4312088	Villa Hills	39.06339	-84.593	US	KY
4313563	Williamsburg	36.74342	-84.15966	US	KY
4313697	Winchester	37.99008	-84.17965	US	KY
4314295	Abbeville	29.97465	-92.13429	US	LA
4314550	Alexandria	31.31129	-92.44514	US	LA
4315312	Baker	30.58824	-91.16816	US	LA
4315535	Bastrop	32.75625	-91.87235	US	LA
4315588	Baton Rouge	30.45075	-91.15455	US	LA
4315768	Bayou Cane	29.6241	-90.7512	US	LA
4316329	Belle Chasse	29.85493	-89.99063	US	LA
4317412	Bogalusa	30.79102	-89.84869	US	LA
4317639	Bossier City	32.51599	-93.73212	US	LA
4317864	Bridge City	29.93326	-90.17007	US	LA
4317801	Breaux Bridge	30.27353	-91.89928	US	LA
4317985	Broussard	30.14715	-91.96123	US	LA
4318037	Brownsfield	30.54658	-91.12066	US	LA
4319030	Carencro	30.31714	-92.04901	US	LA
4319435	Central	30.55435	-91.03677	US	LA
4319507	Chackbay	29.88354	-90.79732	US	LA
4319518	Chalmette	29.9427	-89.9634	US	LA
4320107	Claiborne	32.51598	-92.1918	US	LA
4321005	Covington	30.47547	-90.10091	US	LA
4321310	Crowley	30.21409	-92.37458	US	LA
4321399	Cut Off	29.54272	-90.33814	US	LA
4321781	DeRidder	30.84631	-93.28905	US	LA
4321988	Denham Springs	30.48686	-90.95621	US	LA
4322034	Destrehan	29.94298	-90.35175	US	LA
4322811	Donaldsonville	30.10103	-90.99288	US	LA
4323546	Eden Isle	30.22853	-89.79867	US	LA
4323873	Estelle	29.84576	-90.10674	US	LA
4323900	Eunice	30.49437	-92.41763	US	LA
4325150	Franklin	29.79604	-91.5015	US	LA
4325424	Galliano	29.44216	-90.29925	US	LA
4325507	Gardere	30.34575	-91.14011	US	LA
4325889	Gonzales	30.23853	-90.9201	US	LA
4326320	Gray	29.69771	-90.78648	US	LA
4326575	Gretna	29.91465	-90.05396	US	LA
4326868	Hammond	30.50436	-90.4612	US	LA
4326916	Harahan	29.94048	-90.20313	US	LA
4327047	Harvey	29.90354	-90.07729	US	LA
4328010	Houma	29.59577	-90.71953	US	LA
4328435	Inniswold	30.40491	-91.08344	US	LA
4328973	Jefferson	29.96604	-90.15313	US	LA
4328952	Jeanerette	29.91104	-91.66345	US	LA
4329753	Kenner	29.99409	-90.24174	US	LA
4329037	Jennings	30.22243	-92.65708	US	LA
4330126	Lacombe	30.31353	-89.94313	US	LA
4330145	Lafayette	30.22409	-92.01984	US	LA
4330236	Lake Charles	30.21309	-93.2044	US	LA
4330541	Larose	29.57244	-90.38175	US	LA
4330525	Laplace	30.06659	-90.48008	US	LA
4330740	Leesville	31.14352	-93.261	US	LA
4332109	Luling	29.93215	-90.36647	US	LA
4332455	Mandeville	30.35825	-90.06563	US	LA
4332494	Mansfield	32.03766	-93.70018	US	LA
4332604	Marksville	31.12797	-92.06624	US	LA
4332628	Marrero	29.89937	-90.10035	US	LA
4333126	Meraux	29.93298	-89.94979	US	LA
4333161	Merrydale	30.5013	-91.10844	US	LA
4333177	Metairie	29.98409	-90.15285	US	LA
4333190	Metairie Terrace	29.97854	-90.16396	US	LA
4333533	Minden	32.61543	-93.28684	US	LA
4333669	Monroe	32.50931	-92.1193	US	LA
4333718	Monticello	30.48908	-91.04872	US	LA
4333811	Morgan City	29.69937	-91.20677	US	LA
4333961	Moss Bluff	30.3027	-93.19071	US	LA
4334720	Natchitoches	31.76072	-93.08627	US	LA
4334971	New Iberia	30.00354	-91.81873	US	LA
4335045	New Orleans	29.95465	-90.07507	US	LA
4335754	Oak Hills Place	30.35992	-91.0876	US	LA
4335796	Oakdale	30.81603	-92.66042	US	LA
4335797	Oakdale	30.80547	-92.62153	US	LA
4335963	Old Jefferson	30.38269	-91.01705	US	LA
4336153	Opelousas	30.53353	-92.08151	US	LA
4336646	Patterson	29.69326	-91.30205	US	LA
4337291	Pineville	31.3224	-92.4343	US	LA
4337436	Plaquemine	30.28908	-91.23427	US	LA
4337823	Port Allen	30.45214	-91.21011	US	LA
4337775	Ponchatoula	30.4388	-90.44148	US	LA
4338012	Prairieville	30.30297	-90.97205	US	LA
4338068	Prien	30.18187	-93.27377	US	LA
4338298	Raceland	29.72743	-90.59898	US	LA
4338406	Rayne	30.23492	-92.26846	US	LA
4338615	Reserve	30.05381	-90.55175	US	LA
4338818	River Ridge	29.9602	-90.21563	US	LA
4339348	Ruston	32.52321	-92.63793	US	LA
4339690	Saint Gabriel	30.2577	-91.09927	US	LA
4340196	Saint Martinville	30.1252	-91.83345	US	LA
4340551	Saint Rose	29.94687	-90.32313	US	LA
4341007	Schriever	29.74215	-90.81037	US	LA
4341033	Scott	30.23576	-92.09457	US	LA
4341378	Shenandoah	30.4013	-91.00094	US	LA
4341513	Shreveport	32.52515	-93.75018	US	LA
4341727	Slidell	30.27519	-89.78117	US	LA
4342816	Sulphur	30.23659	-93.37738	US	LA
4342429	Springhill	33.00597	-93.46684	US	LA
4343103	Tallulah	32.40848	-91.18678	US	LA
4343327	Terrytown	29.9102	-90.03257	US	LA
4343429	Thibodaux	29.79576	-90.82287	US	LA
4343659	Timberlane	29.87743	-90.03202	US	LA
4344651	Ville Platte	30.68797	-92.27152	US	LA
4344644	Village Saint George	30.36214	-91.06733	US	LA
4344819	Waggaman	29.91854	-90.21091	US	LA
4345850	West Monroe	32.51848	-92.14764	US	LA
4344844	Walker	30.48797	-90.86149	US	LA
4345968	Westwego	29.90604	-90.1423	US	LA
4346615	Woodmere	29.85798	-90.08035	US	LA
4346788	Zachary	30.64852	-91.1565	US	LA
4346810	Youngsville	30.09965	-91.99012	US	LA
4346913	Aberdeen	39.50956	-76.16412	US	MD
4346952	Accokeek	38.66762	-77.02831	US	MD
4346991	Adelphi	39.00317	-76.97192	US	MD
4347242	Annapolis	38.97845	-76.49218	US	MD
4347371	Arbutus	39.25455	-76.69997	US	MD
4347426	Arnold	39.03206	-76.50274	US	MD
4347553	Aspen Hill	39.07955	-77.07303	US	MD
4347778	Baltimore	39.29038	-76.61219	US	MD
4347800	Baltimore Highlands	39.23316	-76.63663	US	MD
4347839	Ballenger Creek	39.3726	-77.43526	US	MD
4348240	Bel Air	39.53594	-76.34829	US	MD
4348353	Beltsville	39.03483	-76.90747	US	MD
4348418	Bennsville	38.60929	-77.0122	US	MD
4348599	Bethesda	38.98067	-77.10026	US	MD
4348888	Bladensburg	38.93928	-76.93386	US	MD
4349159	Bowie	38.94278	-76.73028	US	MD
4349175	Bowleys Quarters	39.33539	-76.39024	US	MD
4349283	Brandywine	38.69678	-76.84775	US	MD
4349551	Brock Hall	38.85011	-76.76108	US	MD
4349599	Brooklyn Park	39.22844	-76.61636	US	MD
4349706	Brunswick	39.31427	-77.62777	US	MD
4349903	Burtonsville	39.11122	-76.93248	US	MD
4350049	California	38.3004	-76.50745	US	MD
4350160	Calverton	39.05761	-76.93581	US	MD
4349727	Bryans Road	38.62706	-77.07303	US	MD
4350175	Cambridge	38.56317	-76.07883	US	MD
4350288	Camp Springs	38.804	-76.90664	US	MD
4350348	Cape Saint Claire	39.04317	-76.44496	US	MD
4350413	Carney	39.39427	-76.52358	US	MD
4350635	Catonsville	39.27205	-76.73192	US	MD
4351184	Chesapeake Beach	38.68623	-76.53468	US	MD
4351228	Chesapeake Ranch Estates	38.34624	-76.41773	US	MD
4351327	Cheverly	38.92817	-76.91581	US	MD
4351335	Chevy Chase	38.97122	-77.07637	US	MD
4351383	Chillum	38.96372	-76.99081	US	MD
4351708	Clarksburg	39.23872	-77.27943	US	MD
4351851	Cloverly	39.10816	-76.99775	US	MD
4351871	Clinton	38.76511	-76.89831	US	MD
4351887	Cockeysville	39.48122	-76.64386	US	MD
4351951	Colesville	39.07566	-77.00192	US	MD
4351977	College Park	38.98067	-76.93692	US	MD
4352053	Columbia	39.24038	-76.83942	US	MD
4352247	Coral Hills	38.87039	-76.92108	US	MD
4352539	Crofton	39.00178	-76.68747	US	MD
4352681	Cumberland	39.65287	-78.76252	US	MD
4352728	Damascus	39.28844	-77.20387	US	MD
4352795	Darnestown	39.10344	-77.29082	US	MD
4351264	Chestertown	39.209	-76.06661	US	MD
4352815	Davidsonville	38.92289	-76.6283	US	MD
4353463	District Heights	38.85761	-76.88942	US	MD
4353765	Dundalk	39.25066	-76.52052	US	MD
4353925	East Riverdale	38.96206	-76.92192	US	MD
4353962	Easton	38.77428	-76.07633	US	MD
4354060	Edgemere	39.24205	-76.44802	US	MD
4354072	Edgewater	38.95706	-76.54996	US	MD
4354087	Edgewood	39.41872	-76.2944	US	MD
4354163	Eldersburg	39.40371	-76.95026	US	MD
4354234	Elkton	39.60678	-75.83327	US	MD
4354256	Elkridge	39.21261	-76.71358	US	MD
4354265	Ellicott City	39.26733	-76.79831	US	MD
4354428	Essex	39.30927	-76.47496	US	MD
4354573	Fairland	39.07622	-76.95775	US	MD
4354708	Fallston	39.51455	-76.41107	US	MD
4354821	Ferndale	39.18316	-76.64024	US	MD
4355214	Forest Glen	39.01455	-77.0547	US	MD
4355274	Forestville	38.84511	-76.87497	US	MD
4355355	Fort Washington	38.70734	-77.02303	US	MD
4355322	Fort George G Mead Junction	39.12594	-76.78914	US	MD
4355400	Four Corners	39.02039	-77.01275	US	MD
4355585	Frederick	39.41427	-77.41054	US	MD
4355670	Friendly	38.75178	-76.97859	US	MD
4355756	Frostburg	39.65814	-78.92836	US	MD
4355843	Gaithersburg	39.14344	-77.20137	US	MD
4355958	Garrison	39.40594	-76.76053	US	MD
4356050	Germantown	39.17316	-77.27165	US	MD
4356165	Glassmanor	38.819	-76.99859	US	MD
4356188	Glen Burnie	39.16261	-76.62469	US	MD
4356242	Glenarden	38.92928	-76.86164	US	MD
4356280	Glenmont	39.05789	-77.0497	US	MD
4356289	Glenn Dale	38.98761	-76.82053	US	MD
4356341	Goddard	38.98955	-76.85331	US	MD
4356783	Green Haven	39.13955	-76.54774	US	MD
4356836	Green Valley	39.30927	-77.29721	US	MD
4356847	Greenbelt	39.00455	-76.87553	US	MD
4357141	Hagerstown	39.64176	-77.71999	US	MD
4357176	Halfway	39.62065	-77.75888	US	MD
4357279	Hampstead	39.60483	-76.84998	US	MD
4357289	Hampton	39.42288	-76.58469	US	MD
4357340	Hanover	39.19289	-76.72414	US	MD
4357617	Havre de Grace	39.54928	-76.09162	US	MD
4358066	Hillandale	39.0265	-76.97414	US	MD
4358082	Hillcrest Heights	38.83289	-76.95942	US	MD
4358701	Hunt Valley	39.49983	-76.64108	US	MD
4358821	Hyattsville	38.95594	-76.94553	US	MD
4358864	Ilchester	39.25094	-76.76469	US	MD
4359619	Joppatowne	39.45789	-76.35524	US	MD
4359721	Kemp Mill	39.039	-77.01914	US	MD
4359858	Kettering	38.88456	-76.81469	US	MD
4360103	La Plata	38.52929	-76.97525	US	MD
4360138	Lake Arbor	38.90789	-76.82969	US	MD
4360201	Lake Shore	39.10705	-76.48496	US	MD
4360287	Landover	38.934	-76.89664	US	MD
4360314	Langley Park	38.98872	-76.98136	US	MD
4360321	Lanham	38.96706	-76.86192	US	MD
4360328	Lansdowne	39.24511	-76.66052	US	MD
4360345	Largo	38.89761	-76.83025	US	MD
4360369	Laurel	39.09928	-76.84831	US	MD
4360592	Lexington Park	38.26679	-76.45384	US	MD
4360443	Layhill	39.09233	-77.04442	US	MD
4360700	Linganore	39.44038	-77.20804	US	MD
4360713	Linthicum	39.20511	-76.65275	US	MD
4360954	Lochearn	39.34066	-76.72219	US	MD
4361094	Londontowne	38.93345	-76.54941	US	MD
4361379	Lutherville	39.42122	-76.62608	US	MD
4361721	Marlow Heights	38.83345	-76.95164	US	MD
4361725	Marlton	38.77373	-76.78997	US	MD
4361831	Maryland City	39.09205	-76.81775	US	MD
4362001	Mayo	38.88761	-76.5119	US	MD
4362009	Mays Chapel	39.43316	-76.64941	US	MD
4362344	Middle River	39.33427	-76.43941	US	MD
4362438	Milford Mill	39.34788	-76.76997	US	MD
4362624	Mitchellville	38.92511	-76.74275	US	MD
4362743	Montgomery Village	39.17677	-77.19526	US	MD
4362882	Mount Airy	39.37621	-77.1547	US	MD
4363124	Mount Rainier	38.9415	-76.96498	US	MD
4363611	New Carrollton	38.96983	-76.87997	US	MD
4363836	North Bel Air	39.53983	-76.35496	US	MD
4363843	North Bethesda	39.04455	-77.11887	US	MD
4363960	North Kensington	39.03039	-77.07248	US	MD
4363990	North Potomac	39.08289	-77.26498	US	MD
4364312	Ocean City	38.3365	-75.08491	US	MD
4364326	Ocean Pines	38.39539	-75.15574	US	MD
4364362	Odenton	39.084	-76.70025	US	MD
4364537	Olney	39.15316	-77.06692	US	MD
4364690	Overlea	39.36344	-76.52052	US	MD
4364727	Owings Mills	39.41955	-76.78025	US	MD
4364759	Oxon Hill	38.80345	-76.9897	US	MD
4364946	Parkville	39.37733	-76.53969	US	MD
4364964	Parole	38.97956	-76.53052	US	MD
4364990	Pasadena	39.10733	-76.57108	US	MD
4365227	Perry Hall	39.41261	-76.46357	US	MD
4365387	Pikesville	39.37427	-76.72247	US	MD
4366001	Potomac	39.01817	-77.20859	US	MD
4366270	Pumphrey	39.21733	-76.63719	US	MD
4366476	Randallstown	39.36733	-76.79525	US	MD
4366593	Redland	39.14539	-77.14415	US	MD
4366647	Reisterstown	39.46955	-76.82942	US	MD
4366919	Riverdale Park	38.96344	-76.93164	US	MD
4366929	Riverside	39.47372	-76.24134	US	MD
4366930	Riverside	39.17344	-76.88525	US	MD
4366966	Riviera Beach	39.16678	-76.50802	US	MD
4367034	Robinwood	38.95428	-76.51468	US	MD
4367035	Robinwood	39.63704	-77.65694	US	MD
4367175	Rockville	39.084	-77.15276	US	MD
4367344	Rosaryville	38.75678	-76.80969	US	MD
4367372	Rosedale	39.32011	-76.51552	US	MD
4367417	Rossmoor	39.10372	-77.07109	US	MD
4367419	Rossville	39.33844	-76.47968	US	MD
4367734	Saint Charles	38.60317	-76.93858	US	MD
4368711	Salisbury	38.36067	-75.59937	US	MD
4368879	Savage	39.13789	-76.82386	US	MD
4369076	Seabrook	38.96789	-76.84497	US	MD
4369190	Severn	39.13705	-76.6983	US	MD
4369224	Severna Park	39.07039	-76.54524	US	MD
4369286	Shady Side	38.84178	-76.51218	US	MD
4369571	Silver Hill	38.84178	-76.94581	US	MD
4369596	Silver Spring	38.99067	-77.02609	US	MD
4369928	South Bel Air	39.53316	-76.33746	US	MD
4369964	South Gate	39.129	-76.6258	US	MD
4369976	South Kensington	39.019	-77.07998	US	MD
4369978	South Laurel	39.06983	-76.85025	US	MD
4370201	Spring Ridge	39.40149	-77.35248	US	MD
4370366	Stevensville	38.98067	-76.3144	US	MD
4370616	Suitland	38.84872	-76.92386	US	MD
4370890	Takoma Park	38.97789	-77.00748	US	MD
4370931	Taneytown	39.65788	-77.17443	US	MD
4371053	Temple Hills	38.814	-76.94553	US	MD
4371334	Thurmont	39.62371	-77.41082	US	MD
4371420	Timonium	39.43705	-76.61969	US	MD
4371582	Towson	39.4015	-76.60191	US	MD
4371635	Travilah	39.069	-77.26304	US	MD
4372201	Urbana	39.32594	-77.35137	US	MD
4372599	Waldorf	38.62456	-76.93914	US	MD
4372623	Walker Mill	38.87539	-76.88831	US	MD
4372630	Walkersville	39.48621	-77.35193	US	MD
4373104	West Elkridge	39.20705	-76.72692	US	MD
4373238	Westminster	39.57538	-76.99581	US	MD
4373275	Westphalia	38.84539	-76.81108	US	MD
4373349	Wheaton	39.03983	-77.05526	US	MD
4373426	White Marsh	39.38372	-76.43218	US	MD
4373449	White Oak	39.03983	-76.99303	US	MD
4374054	Woodlawn	39.32288	-76.72803	US	MD
4374056	Woodlawn	38.94956	-76.89136	US	MD
4374513	Affton	38.55061	-90.33317	US	MO
4375087	Arnold	38.43283	-90.37762	US	MO
4375349	Aurora	36.97089	-93.71798	US	MO
4375663	Ballwin	38.59505	-90.54623	US	MO
4375832	Barnhart	38.34422	-90.39345	US	MO
4375979	Battlefield	37.11561	-93.37019	US	MO
4376444	Bellefontaine Neighbors	38.74033	-90.2265	US	MO
4376482	Belton	38.81195	-94.5319	US	MO
4376623	Berkeley	38.7545	-90.33123	US	MO
4377295	Black Jack	38.79338	-90.26733	US	MO
4377664	Blue Springs	39.01695	-94.28161	US	MO
4377835	Bolivar	37.61448	-93.41047	US	MO
4377957	Boonville	38.97364	-92.74324	US	MO
4377913	Bonne Terre	37.92311	-90.5554	US	MO
4378070	Bowling Green	39.34199	-91.19514	US	MO
4378219	Branson	36.64367	-93.21851	US	MO
4378312	Brentwood	38.61755	-90.34928	US	MO
4378391	Bridgeton	38.767	-90.41151	US	MO
4379644	Cameron	39.74028	-94.24106	US	MO
4379966	Cape Girardeau	37.30588	-89.51815	US	MO
4380043	Carl Junction	37.17672	-94.56551	US	MO
4380202	Carthage	37.17645	-94.31022	US	MO
4380211	Caruthersville	36.19312	-89.65564	US	MO
4380997	Charleston	36.92089	-89.35063	US	MO
4381104	Chillicothe	39.79529	-93.55244	US	MO
4381072	Chesterfield	38.66311	-90.57707	US	MO
4381478	Clayton	38.64255	-90.32373	US	MO
4381643	Clinton	38.36863	-93.77827	US	MO
4381982	Columbia	38.95171	-92.33407	US	MO
4382072	Concord	38.5245	-90.35734	US	MO
4382833	Crestwood	38.557	-90.38178	US	MO
4382837	Creve Coeur	38.66089	-90.42262	US	MO
4383306	Dardenne Prairie	38.7695	-90.72902	US	MO
4383513	De Soto	38.1395	-90.55513	US	MO
4383713	Dellwood	38.7495	-90.28567	US	MO
4383778	Des Peres	38.60089	-90.4329	US	MO
4383785	Desloge	37.87088	-90.52735	US	MO
4383857	Dexter	36.79589	-89.95787	US	MO
4385018	East Independence	39.09556	-94.35523	US	MO
4385494	Ellisville	38.59255	-90.58707	US	MO
4385835	Eureka	38.50255	-90.6279	US	MO
4385966	Excelsior Springs	39.33917	-94.22606	US	MO
4386289	Farmington	37.78088	-90.42179	US	MO
4386387	Ferguson	38.74422	-90.30539	US	MO
4386419	Festus	38.22061	-90.39595	US	MO
4386685	Flat River	37.85005	-90.51679	US	MO
4386802	Florissant	38.78922	-90.32261	US	MO
4387990	Gladstone	39.20389	-94.55468	US	MO
4387496	Fulton	38.84671	-91.94796	US	MO
4388005	Glasgow Village	38.75366	-90.19844	US	MO
4388036	Glendale	38.59589	-90.37706	US	MO
4388402	Grain Valley	39.01501	-94.19856	US	MO
4388460	Grandview	38.88584	-94.53301	US	MO
4388831	Greenwood	38.85168	-94.34384	US	MO
4389418	Hannibal	39.70838	-91.35848	US	MO
4389658	Harrisonville	38.65334	-94.34884	US	MO
4389967	Hazelwood	38.77144	-90.37095	US	MO
4391812	Independence	39.09112	-94.41551	US	MO
4392163	Jackson	37.38227	-89.66621	US	MO
4392388	Jefferson City	38.5767	-92.17352	US	MO
4392445	Jennings	38.71922	-90.26039	US	MO
4393217	Kansas City	39.09973	-94.57857	US	MO
4392768	Joplin	37.08423	-94.51328	US	MO
4393269	Kearney	39.36778	-94.36217	US	MO
4393451	Kennett	36.23618	-90.05565	US	MO
4393739	Kirkwood	38.58339	-90.40678	US	MO
4394084	Ladue	38.64977	-90.38067	US	MO
4394302	Lake Saint Louis	38.79755	-90.78568	US	MO
4394794	Lebanon	37.6806	-92.66379	US	MO
4394870	Lees Summit	38.91084	-94.38217	US	MO
4394905	Lemay	38.53339	-90.27928	US	MO
4395052	Liberty	39.24611	-94.41912	US	MO
4396767	Macon	39.74226	-92.47269	US	MO
4396915	Manchester	38.597	-90.50929	US	MO
4397042	Maplewood	38.61255	-90.32456	US	MO
4397211	Marshall	39.12308	-93.19687	US	MO
4397238	Marshfield	37.33866	-92.90712	US	MO
4397340	Maryland Heights	38.71311	-90.42984	US	MO
4397962	Mehlville	38.50839	-90.32289	US	MO
4398103	Mexico	39.16976	-91.88295	US	MO
4398730	Moberly	39.41837	-92.43824	US	MO
4398776	Monett	36.92895	-93.92771	US	MO
4399914	Murphy	38.49033	-90.48707	US	MO
4400183	Neosho	36.86896	-94.368	US	MO
4400203	Nevada	37.83921	-94.35467	US	MO
4400648	Nixa	37.04339	-93.29435	US	MO
4400737	Normandy	38.72088	-90.29734	US	MO
4401242	O'Fallon	38.81061	-90.69985	US	MO
4401282	Oak Grove	39.00501	-94.12939	US	MO
4401618	Oakville	38.47005	-90.30456	US	MO
4401659	Odessa	38.99917	-93.95356	US	MO
4401938	Olivette	38.66533	-90.37595	US	MO
4402178	Overland	38.70116	-90.36234	US	MO
4402245	Ozark	37.02089	-93.20602	US	MO
4402300	Pacific	38.482	-90.74152	US	MO
4402479	Park Hills	37.85422	-90.51818	US	MO
4402544	Parkville	39.195	-94.68218	US	MO
4403102	Pevely	38.28339	-90.39512	US	MO
4402998	Perryville	37.72422	-89.86122	US	MO
4403710	Pleasant Hill	38.78751	-94.26939	US	MO
4404233	Poplar Bluff	36.757	-90.39289	US	MO
4405180	Raymore	38.80195	-94.45273	US	MO
4405188	Raytown	39.00862	-94.46356	US	MO
4405434	Republic	37.12005	-93.48019	US	MO
4405588	Richmond	39.27862	-93.97689	US	MO
4405589	Richmond Heights	38.62866	-90.31956	US	MO
4406282	Rolla	37.95143	-91.77127	US	MO
4406783	Saint Ann	38.72727	-90.38317	US	MO
4406831	Saint Charles	38.78394	-90.48123	US	MO
4406941	Saint John	37.88921	-92.37962	US	MO
4406951	Saint Johns	38.71338	-90.34317	US	MO
4407010	Saint Joseph	39.76861	-94.84663	US	MO
4407066	St. Louis	38.62727	-90.19789	US	MO
4407237	Saint Peters	38.80033	-90.62651	US	MO
4407617	Sappington	38.537	-90.37984	US	MO
4407665	Savannah	39.94166	-94.83025	US	MO
4408000	Sedalia	38.70446	-93.22826	US	MO
4408611	Shrewsbury	38.59033	-90.33678	US	MO
4408672	Sikeston	36.87672	-89.58786	US	MO
4409199	Smithville	39.38694	-94.58107	US	MO
4409591	Spanish Lake	38.78783	-90.21594	US	MO
4409896	Springfield	37.21533	-93.29824	US	MO
4410669	Sullivan	38.2081	-91.16042	US	MO
4410836	Sunset Hills	38.53894	-90.40734	US	MO
4411912	Town and Country	38.61228	-90.46345	US	MO
4412089	Troy	38.97949	-90.9807	US	MO
4412454	Union	38.45005	-91.00848	US	MO
4412697	University City	38.65588	-90.30928	US	MO
4412820	Valley Park	38.54922	-90.49262	US	MO
4413595	Warrensburg	38.76279	-93.73605	US	MO
4413598	Warrenton	38.81144	-91.14154	US	MO
4413621	Washington	38.55811	-91.01209	US	MO
4413842	Webb City	37.14645	-94.463	US	MO
4413872	Webster Groves	38.59255	-90.35734	US	MO
4413926	Weldon Spring	38.71339	-90.68929	US	MO
4414001	Wentzville	38.81144	-90.85291	US	MO
4414200	West Plains	36.72812	-91.85237	US	MO
4414749	Wildwood	38.58283	-90.6629	US	MO
4414816	Willard	37.30505	-93.42853	US	MO
4415813	Aberdeen	33.82511	-88.54366	US	MS
4416192	Amory	33.98428	-88.4881	US	MS
4417130	Batesville	34.3115	-89.94426	US	MS
4417205	Bay Saint Louis	30.30881	-89.33005	US	MS
4418478	Biloxi	30.39603	-88.88531	US	MS
4419094	Booneville	34.65815	-88.56672	US	MS
4419290	Brandon	32.2732	-89.98592	US	MS
4419500	Brookhaven	31.57906	-90.44065	US	MS
4420177	Byram	32.17932	-90.24537	US	MS
4420617	Canton	32.61264	-90.03675	US	MS
4420719	Carriere	30.61686	-89.65256	US	MS
4420799	Carthage	32.73264	-89.53618	US	MS
4421935	Clarksdale	34.20011	-90.57093	US	MS
4422106	Cleveland	33.744	-90.72482	US	MS
4422133	Clinton	32.34153	-90.32176	US	MS
4422442	Columbus	33.49567	-88.42726	US	MS
4422457	Columbia	31.25184	-89.83758	US	MS
4422713	Corinth	34.93425	-88.52227	US	MS
4423227	Crystal Springs	31.98738	-90.35704	US	MS
4423395	D'Iberville	30.42631	-88.89086	US	MS
4423888	Diamondhead	30.39464	-89.36394	US	MS
4426822	Flowood	32.30959	-90.13898	US	MS
4426884	Forest	32.36459	-89.47423	US	MS
4427569	Gautier	30.38576	-88.61169	US	MS
4428475	Greenville	33.41012	-91.06177	US	MS
4428495	Greenwood	33.51623	-90.17953	US	MS
4428539	Grenada	33.769	-89.80842	US	MS
4428654	Gulf Hills	30.43048	-88.84225	US	MS
4428663	Gulf Park Estates	30.39187	-88.76114	US	MS
4428667	Gulfport	30.36742	-89.09282	US	MS
4429295	Hattiesburg	31.32712	-89.29034	US	MS
4429589	Hernando	34.82399	-89.9937	US	MS
4430103	Holly Springs	31.31573	-89.97786	US	MS
4430104	Holly Springs	34.7676	-89.44869	US	MS
4430400	Horn Lake	34.95537	-90.03481	US	MS
4430981	Indianola	33.45095	-90.65509	US	MS
4431410	Jackson	32.29876	-90.18481	US	MS
4432542	Kosciusko	33.05763	-89.58758	US	MS
4433016	Latimer	30.53464	-88.8667	US	MS
4433039	Laurel	31.69405	-89.13061	US	MS
4434069	Long Beach	30.35048	-89.15282	US	MS
4434283	Louisville	33.12374	-89.05506	US	MS
4435318	McComb	31.24379	-90.45315	US	MS
4434663	Madison	32.46181	-90.11536	US	MS
4435764	Meridian	32.36431	-88.70366	US	MS
4436743	Moss Point	30.41159	-88.53446	US	MS
4437982	Natchez	31.56044	-91.40317	US	MS
4438121	New Albany	34.49427	-89.00784	US	MS
4439506	Ocean Springs	30.41131	-88.82781	US	MS
4439869	Olive Branch	34.96176	-89.82953	US	MS
4440076	Oxford	34.3665	-89.51925	US	MS
4440397	Pascagoula	30.36576	-88.55613	US	MS
4440559	Pearl	32.27459	-90.13203	US	MS
4440837	Petal	31.34656	-89.26006	US	MS
4440906	Philadelphia	32.77152	-89.11673	US	MS
4440975	Picayune	30.52547	-89.67951	US	MS
4442067	Pontotoc	34.24788	-88.99867	US	MS
4443249	Richland	32.23904	-90.15842	US	MS
4443296	Ridgeland	32.42848	-90.13231	US	MS
4443338	Ripley	34.72982	-88.95062	US	MS
4445447	Senatobia	34.6176	-89.9687	US	MS
4446675	Southaven	34.98898	-90.01259	US	MS
4447069	Saint Martin	30.43798	-88.86809	US	MS
4447161	Starkville	33.4504	-88.81839	US	MS
4448903	Tupelo	34.25761	-88.70339	US	MS
4449532	Vancleave	30.54047	-88.68752	US	MS
4449620	Vicksburg	32.35265	-90.87788	US	MS
4450411	Waveland	30.28686	-89.37616	US	MS
4450441	Waynesboro	31.67488	-88.64615	US	MS
4450687	West Gulfport	30.40409	-89.0942	US	MS
4450695	West Hattiesburg	31.31906	-89.37506	US	MS
4450753	West Point	33.60762	-88.65033	US	MS
4451810	Yazoo City	32.85513	-90.40565	US	MS
4451465	Winona	33.48207	-89.72814	US	MS
4452137	Aberdeen	35.13155	-79.42948	US	NC
4452256	Ahoskie	36.28682	-76.98468	US	NC
4452303	Albemarle	35.35014	-80.20006	US	NC
4452808	Apex	35.73265	-78.85029	US	NC
4452871	Archdale	35.91458	-79.97198	US	NC
4453035	Asheboro	35.70791	-79.81364	US	NC
4453066	Asheville	35.60095	-82.55402	US	NC
4454860	Belmont	35.24292	-81.0373	US	NC
4455080	Bessemer City	35.28486	-81.28397	US	NC
4456121	Black Mountain	35.6179	-82.32123	US	NC
4456593	Boiling Spring Lakes	34.03045	-78.06721	US	NC
4456703	Boone	36.2168	-81.67455	US	NC
4457040	Brevard	35.23345	-82.73429	US	NC
4458228	Burlington	36.09569	-79.4378	US	NC
4458372	Butner	36.13209	-78.75667	US	NC
4459261	Carolina Beach	34.03517	-77.8936	US	NC
4459343	Carrboro	35.91014	-79.07529	US	NC
4459467	Cary	35.79154	-78.78112	US	NC
4460243	Charlotte	35.22709	-80.84313	US	NC
4460162	Chapel Hill	35.9132	-79.05584	US	NC
4460465	Cherryville	35.37874	-81.37897	US	NC
4460943	Clayton	35.65071	-78.45639	US	NC
4461015	Clemmons	36.02153	-80.382	US	NC
4461101	Clinton	34.99795	-78.32333	US	NC
4461574	Concord	35.40875	-80.57951	US	NC
4461696	Conover	35.70652	-81.21869	US	NC
4461941	Cornelius	35.4868	-80.86007	US	NC
4462701	Cullowhee	35.31371	-83.17653	US	NC
4463053	Davidson	35.50233	-80.83912	US	NC
4464326	Dunn	35.30627	-78.6089	US	NC
4464368	Durham	35.99403	-78.89862	US	NC
4464873	Eden	36.48847	-79.7667	US	NC
4464897	Edenton	36.05794	-76.60772	US	NC
4465088	Elizabeth City	36.2946	-76.25105	US	NC
4465285	Elon	36.10291	-79.50669	US	NC
4465507	Etowah	35.31762	-82.59429	US	NC
4466033	Fayetteville	35.05266	-78.87836	US	NC
4466547	Fletcher	35.43067	-82.50123	US	NC
4466720	Forest City	35.33401	-81.8651	US	NC
4467657	Garner	35.71126	-78.61417	US	NC
4467485	Fuquay-Varina	35.58432	-78.80001	US	NC
4467732	Gastonia	35.26208	-81.1873	US	NC
4467926	Gibsonville	36.10569	-79.54225	US	NC
4468261	Goldsboro	35.38488	-77.99277	US	NC
4468525	Graham	36.06903	-79.40058	US	NC
4469146	Greensboro	36.07264	-79.79198	US	NC
4469160	Greenville	35.61266	-77.36635	US	NC
4469730	Hamlet	34.88488	-79.69422	US	NC
4469607	Half Moon	34.826	-77.45941	US	NC
4470109	Harrisburg	35.32375	-80.6559	US	NC
4470244	Havelock	34.87905	-76.90133	US	NC
4470592	Hendersonville	35.31873	-82.46095	US	NC
4470566	Henderson	36.32959	-78.39916	US	NC
4470778	Hickory	35.73319	-81.3412	US	NC
4471025	High Point	35.95569	-80.00532	US	NC
4471241	Hillsborough	36.07542	-79.09973	US	NC
4471641	Holly Springs	35.65127	-78.83362	US	NC
4471851	Hope Mills	34.97044	-78.94531	US	NC
4472370	Huntersville	35.41069	-80.84285	US	NC
4472687	Indian Trail	35.07681	-80.66924	US	NC
4473083	Jacksonville	34.75405	-77.43024	US	NC
4473137	James City	35.08877	-77.03495	US	NC
4474040	Kannapolis	35.48736	-80.62173	US	NC
4474221	Kernersville	36.11986	-80.07365	US	NC
4474274	Kill Devil Hills	36.03072	-75.67601	US	NC
4474316	King	36.28069	-80.35922	US	NC
4474382	Kings Grant	34.26295	-77.8636	US	NC
4474388	Kings Mountain	35.24513	-81.34119	US	NC
4474436	Kinston	35.26266	-77.58164	US	NC
4474527	Knightdale	35.78765	-78.48056	US	NC
4474841	Lake Norman of Catawba	35.5868	-80.95952	US	NC
4475347	Laurinburg	34.77405	-79.46282	US	NC
4475622	Leland	34.25628	-78.04471	US	NC
4475640	Lenoir	35.91402	-81.53898	US	NC
4475767	Lewisville	36.09708	-80.41922	US	NC
4475773	Lexington	35.82403	-80.25338	US	NC
4475995	Lincolnton	35.47374	-81.25453	US	NC
4476919	Long Beach	33.91045	-78.11777	US	NC
4477525	Lumberton	34.61822	-79.00864	US	NC
4478003	Marion	35.68401	-82.00927	US	NC
4478192	Marvin	34.99182	-80.81479	US	NC
4478253	Masonboro	34.17934	-77.84748	US	NC
4478877	Mebane	36.09597	-79.26696	US	NC
4478334	Matthews	35.11681	-80.72368	US	NC
4479639	Mills River	35.38845	-82.56679	US	NC
4479759	Mint Hill	35.17959	-80.64729	US	NC
4479891	Mocksville	35.89403	-80.56145	US	NC
4479946	Monroe	34.98543	-80.54951	US	NC
4480125	Mooresville	35.58486	-80.81007	US	NC
4480153	Morehead City	34.72294	-76.72604	US	NC
4480219	Morganton	35.74541	-81.68482	US	NC
4480285	Morrisville	35.82348	-78.82556	US	NC
4480378	Mount Airy	36.4993	-80.60729	US	NC
4480560	Mount Holly	35.29819	-81.01591	US	NC
4481345	Murraysville	34.29572	-77.84748	US	NC
4481385	Myrtle Grove	34.13462	-77.88165	US	NC
4481519	Nashville	35.9746	-77.96554	US	NC
4481682	New Bern	35.10849	-77.04411	US	NC
4482101	Newton	35.66986	-81.22147	US	NC
4482916	Oak Island	33.91656	-78.16111	US	NC
4482941	Oak Ridge	36.17347	-79.98893	US	NC
4483174	Ogden	34.27239	-77.81859	US	NC
4483745	Oxford	36.3107	-78.59083	US	NC
4485272	Pinehurst	35.19543	-79.46948	US	NC
4485305	Pineville	35.0832	-80.8923	US	NC
4485355	Piney Green	34.716	-77.32024	US	NC
4487042	Raleigh	35.7721	-78.63861	US	NC
4487682	Reidsville	36.35486	-79.66447	US	NC
4488232	Roanoke Rapids	36.46154	-77.65415	US	NC
4488587	Rockingham	34.93932	-79.77395	US	NC
4488762	Rocky Mount	35.93821	-77.79053	US	NC
4489200	Roxboro	36.39375	-78.98279	US	NC
4489985	Salisbury	35.67097	-80.47423	US	NC
4490329	Sanford	35.47988	-79.1803	US	NC
4490510	Sawmills	35.82485	-81.47454	US	NC
4490778	Selma	35.53655	-78.28444	US	NC
4491180	Shelby	35.29235	-81.53565	US	NC
4491651	Siler City	35.72347	-79.46224	US	NC
4491715	Silver Lake	34.14878	-77.9136	US	NC
4492168	Smithfield	35.50849	-78.33945	US	NC
4492573	South Gastonia	35.2193	-81.20563	US	NC
4492722	Southern Pines	35.17405	-79.39225	US	NC
4493035	Spring Lake	35.16794	-78.97281	US	NC
4493146	Saint Stephens	35.76458	-81.27314	US	NC
4493186	Stallings	35.0907	-80.68618	US	NC
4493316	Statesville	35.78264	-80.8873	US	NC
4493547	Stokesdale	36.23708	-79.97948	US	NC
4493990	Summerfield	36.20875	-79.90476	US	NC
4493991	Summerfield	35.56822	-77.40274	US	NC
4494513	Tarboro	35.89682	-77.5358	US	NC
4494942	Thomasville	35.88264	-80.08199	US	NC
4495616	Trinity	35.89458	-79.99087	US	NC
4496304	Unionville	35.08737	-80.50896	US	NC
4497244	Wadesboro	34.96821	-80.07673	US	NC
4497290	Wake Forest	35.97987	-78.50972	US	NC
4497666	Washington	35.54655	-77.05217	US	NC
4497833	Waxhaw	34.92459	-80.7434	US	NC
4497868	Waynesville	35.48871	-82.98875	US	NC
4497956	Weddington	35.02237	-80.7609	US	NC
4498075	Wesley Chapel	35.00709	-80.67451	US	NC
4498084	Wendell	35.78099	-78.36972	US	NC
4498303	West Raleigh	35.78682	-78.66389	US	NC
4498899	Whiteville	34.33878	-78.70307	US	NC
4499379	Wilmington	34.22573	-77.94471	US	NC
4499294	Williamston	35.8546	-77.05551	US	NC
4499389	Wilson	35.72127	-77.91554	US	NC
4499612	Winston-Salem	36.09986	-80.24422	US	NC
4499629	Winterville	35.52905	-77.40108	US	NC
4499850	Woodfin	35.63344	-82.58207	US	NC
4500458	Absecon	39.42845	-74.49571	US	NJ
4500538	Ashland	39.86317	-75.006	US	NJ
4500546	Atlantic City	39.36428	-74.42293	US	NJ
4500572	Audubon	39.89095	-75.07295	US	NJ
4500653	Barrington	39.86484	-75.05517	US	NJ
4500709	Beachwood	39.93901	-74.19292	US	NJ
4500750	Bellmawr	39.86761	-75.09462	US	NJ
4500771	Berlin	39.79123	-74.92905	US	NJ
4500920	Brigantine	39.41012	-74.36459	US	NJ
4500942	Bridgeton	39.42734	-75.23408	US	NJ
4500959	Browns Mills	39.97261	-74.58293	US	NJ
4501018	Camden	39.92595	-75.11962	US	NJ
4501057	Cape May Court House	39.08261	-74.82378	US	NJ
4501073	Carneys Point	39.71122	-75.4702	US	NJ
4501198	Cherry Hill	39.93484	-75.03073	US	NJ
4501204	Cherry Hill Mall	39.93595	-75.00906	US	NJ
4501234	Cinnaminson	39.99678	-74.99267	US	NJ
4501265	Clayton	39.66011	-75.09212	US	NJ
4501306	Collingswood	39.91817	-75.07128	US	NJ
4501393	Crestwood Village	39.94817	-74.3607	US	NJ
4501632	Echelon	39.84845	-74.99572	US	NJ
4501818	Forked River	39.83984	-74.19014	US	NJ
4501931	Glassboro	39.70289	-75.11184	US	NJ
4501943	Gloucester City	39.89178	-75.11629	US	NJ
4502049	Greentree	39.89706	-74.95572	US	NJ
4502093	Haddon Heights	39.87734	-75.06462	US	NJ
4502103	Haddonfield	39.8915	-75.03767	US	NJ
4502129	Hammonton	39.63651	-74.80239	US	NJ
4502434	Jackson	39.7765	-74.86238	US	NJ
4502543	Kingston Estates	39.92372	-74.98795	US	NJ
4502687	Lindenwold	39.82428	-74.99767	US	NJ
4502690	Linwood	39.33984	-74.57516	US	NJ
4502901	Maple Shade	39.95261	-74.99239	US	NJ
4502904	Margate City	39.32789	-74.50349	US	NJ
4502911	Marlton	39.89122	-74.92183	US	NJ
4503078	Millville	39.40206	-75.03934	US	NJ
4503134	Mount Holly	39.99289	-74.78766	US	NJ
4503136	Mount Laurel	39.934	-74.891	US	NJ
4503204	Mystic Island	39.54428	-74.38237	US	NJ
4503316	Northfield	39.37039	-74.55015	US	NJ
4503346	Ocean Acres	39.74345	-74.28098	US	NJ
4503351	Ocean City	39.27762	-74.5746	US	NJ
4503516	Paulsboro	39.83039	-75.24046	US	NJ
4503544	Penns Grove	39.72956	-75.46797	US	NJ
4503548	Pennsauken	39.95622	-75.05795	US	NJ
4503555	Pennsville	39.65345	-75.51659	US	NJ
4503606	Pine Hill	39.78428	-74.99211	US	NJ
4503635	Pitman	39.73289	-75.13157	US	NJ
4503646	Pleasantville	39.38984	-74.52404	US	NJ
4503665	Pomona	39.47845	-74.57516	US	NJ
4503944	Salem	39.57178	-75.46714	US	NJ
4503736	Ramblewood	39.92872	-74.94378	US	NJ
4503953	Runnemede	39.85234	-75.06795	US	NJ
4504118	Sicklerville	39.71734	-74.96933	US	NJ
4504164	Smithville	39.49401	-74.45709	US	NJ
4504180	Somerdale	39.844	-75.02267	US	NJ
4504186	Somers Point	39.31762	-74.5946	US	NJ
4504225	South Vineland	39.44595	-75.02879	US	NJ
4504250	Springdale	39.90261	-74.96628	US	NJ
4504336	Stratford	39.82678	-75.01545	US	NJ
4504476	Toms River	39.95373	-74.19792	US	NJ
4504598	Ventnor City	39.34039	-74.47737	US	NJ
4504616	Villas	39.02872	-74.93851	US	NJ
4504621	Vineland	39.48623	-75.02573	US	NJ
4504856	Wildwood	38.99178	-74.81489	US	NJ
4504871	Williamstown	39.68623	-74.99517	US	NJ
4504915	Woodbury	39.83817	-75.15268	US	NJ
4505542	Athens	39.32924	-82.10126	US	OH
4506008	Beavercreek	39.70923	-84.06327	US	OH
4506031	Beckett Ridge	39.347	-84.43522	US	OH
4506166	Bellbrook	39.63562	-84.07077	US	OH
4506187	Belpre	39.27396	-81.5729	US	OH
4506487	Bexley	39.96895	-82.93768	US	OH
4506666	Blacklick Estates	39.90506	-82.86434	US	OH
4506754	Blue Ash	39.232	-84.37827	US	OH
4507067	Bridgetown	39.15311	-84.63717	US	OH
4507188	Brookville	39.83672	-84.41134	US	OH
4507883	Canal Winchester	39.84284	-82.80462	US	OH
4508204	Centerville	39.62839	-84.15938	US	OH
4508465	Cheviot	39.157	-84.61328	US	OH
4508722	Cincinnati	39.162	-84.45689	US	OH
4508778	Circleville	39.60062	-82.94601	US	OH
4508885	Clayton	39.86311	-84.3605	US	OH
4509177	Columbus	39.96118	-82.99879	US	OH
4509506	Covedale	39.12117	-84.60633	US	OH
4509884	Dayton	39.75895	-84.19161	US	OH
4509986	Deer Park	39.20534	-84.39466	US	OH
4510062	Dent	39.18589	-84.65134	US	OH
4510342	Dry Run	39.10423	-84.33049	US	OH
4510719	Eaton	39.74394	-84.63662	US	OH
4511064	Englewood	39.87756	-84.30217	US	OH
4511263	Fairborn	39.82089	-84.01938	US	OH
4511283	Fairfield	39.34589	-84.5605	US	OH
4511642	Finneytown	39.20034	-84.5205	US	OH
4512060	Forest Park	39.29034	-84.50411	US	OH
4512083	Forestville	39.07506	-84.34494	US	OH
4512203	Franklin	39.55895	-84.30411	US	OH
4512557	Geneva	39.66201	-82.43349	US	OH
4512620	Germantown	39.62617	-84.36939	US	OH
4513057	Grandview Heights	39.97979	-83.04074	US	OH
4513394	Groesbeck	39.22311	-84.58689	US	OH
4513409	Grove City	39.88145	-83.09296	US	OH
4513425	Groveport	39.8784	-82.88379	US	OH
4513575	Hamilton	39.3995	-84.56134	US	OH
4513805	Harrison	39.262	-84.81995	US	OH
4514282	Hillsboro	39.20229	-83.61159	US	OH
4514746	Huber Heights	39.84395	-84.12466	US	OH
4515247	Ironton	38.53675	-82.68294	US	OH
4515318	Jackson	39.05202	-82.63655	US	OH
4515813	Kenwood	39.21061	-84.36716	US	OH
4515843	Kettering	39.6895	-84.16883	US	OH
4516233	Lancaster	39.71368	-82.59933	US	OH
4516248	Landen	39.312	-84.28299	US	OH
4516412	Lebanon	39.43534	-84.20299	US	OH
4516701	Lincoln Village	39.95479	-83.13074	US	OH
4516989	Logan	39.54007	-82.4071	US	OH
4517009	London	39.88645	-83.44825	US	OH
4517140	Loveland	39.26895	-84.26383	US	OH
4517323	Mack	39.15811	-84.64967	US	OH
4517353	Madeira	39.19089	-84.36355	US	OH
4517586	Marietta	39.41535	-81.45484	US	OH
4517698	Mason	39.36006	-84.30994	US	OH
4518188	Miamisburg	39.64284	-84.28661	US	OH
4518264	Middletown	39.51506	-84.39828	US	OH
4518307	Milford	39.17534	-84.29438	US	OH
4518550	Monroe	39.44034	-84.36216	US	OH
4518596	Monfort Heights	39.18839	-84.59522	US	OH
4518661	Moraine	39.70617	-84.21938	US	OH
4518597	Montgomery	39.22811	-84.35411	US	OH
4518890	Mount Healthy	39.23367	-84.54578	US	OH
4519445	Nelsonville	39.45868	-82.23182	US	OH
4519486	New Burlington	39.2595	-84.55717	US	OH
4519497	New Carlisle	39.93617	-84.02549	US	OH
4519853	North College Hill	39.21839	-84.55078	US	OH
4519924	Northbrook	39.24645	-84.58356	US	OH
4519938	Northgate	39.25283	-84.59245	US	OH
4519950	Northridge	39.99173	-83.77854	US	OH
4519951	Northridge	39.80756	-84.19689	US	OH
4519995	Norwood	39.15561	-84.45966	US	OH
